0	201	M201:RAW_IMU.xacc	512
0	201	M201:RAW_IMU.yacc	192
0	201	M201:RAW_IMU.zacc	-4067
0	201	M201:RAW_IMU.xmag	48
0	201	M201:RAW_IMU.ymag	-137
0	201	M201:RAW_IMU.zmag	331
104	201	M201:RAW_IMU.xacc	320
104	201	M201:RAW_IMU.yacc	128
104	201	M201:RAW_IMU.zacc	-4070
104	201	M201:RAW_IMU.xmag	47
104	201	M201:RAW_IMU.ymag	-128
104	201	M201:RAW_IMU.zmag	334
200	201	M201:RAW_IMU.xacc	512
200	201	M201:RAW_IMU.yacc	128
200	201	M201:RAW_IMU.zacc	-4069
200	201	M201:RAW_IMU.xmag	50
200	201	M201:RAW_IMU.ymag	-137
200	201	M201:RAW_IMU.zmag	332
304	201	M201:RAW_IMU.xacc	320
304	201	M201:RAW_IMU.yacc	192
304	201	M201:RAW_IMU.zacc	-4078
304	201	M201:RAW_IMU.xmag	49
304	201	M201:RAW_IMU.ymag	-135
304	201	M201:RAW_IMU.zmag	333
400	201	M201:RAW_IMU.xacc	384
400	201	M201:RAW_IMU.yacc	192
400	201	M201:RAW_IMU.zacc	-4065
400	201	M201:RAW_IMU.xmag	50
400	201	M201:RAW_IMU.ymag	-137
400	201	M201:RAW_IMU.zmag	333
604	201	M201:RAW_IMU.xacc	576
604	201	M201:RAW_IMU.yacc	256
604	201	M201:RAW_IMU.zacc	-4076
604	201	M201:RAW_IMU.xmag	49
604	201	M201:RAW_IMU.ymag	-136
604	201	M201:RAW_IMU.zmag	338
700	201	M201:RAW_IMU.xacc	384
700	201	M201:RAW_IMU.yacc	192
700	201	M201:RAW_IMU.zacc	-4071
700	201	M201:RAW_IMU.xmag	46
700	201	M201:RAW_IMU.ymag	-125
700	201	M201:RAW_IMU.zmag	334
804	201	M201:RAW_IMU.xacc	320
804	201	M201:RAW_IMU.yacc	128
804	201	M201:RAW_IMU.zacc	-4063
804	201	M201:RAW_IMU.xmag	47
804	201	M201:RAW_IMU.ymag	-136
804	201	M201:RAW_IMU.zmag	331
900	201	M201:RAW_IMU.xacc	576
900	201	M201:RAW_IMU.yacc	192
900	201	M201:RAW_IMU.zacc	-4065
900	201	M201:RAW_IMU.xmag	47
900	201	M201:RAW_IMU.ymag	-137
900	201	M201:RAW_IMU.zmag	330
1000	201	M201:RAW_IMU.xacc	576
1000	201	M201:RAW_IMU.yacc	128
1000	201	M201:RAW_IMU.zacc	-4074
1000	201	M201:RAW_IMU.xmag	49
1000	201	M201:RAW_IMU.ymag	-137
1000	201	M201:RAW_IMU.zmag	332
1104	201	M201:RAW_IMU.xacc	576
1104	201	M201:RAW_IMU.yacc	192
1104	201	M201:RAW_IMU.zacc	-4070
1104	201	M201:RAW_IMU.xmag	47
1104	201	M201:RAW_IMU.ymag	-132
1104	201	M201:RAW_IMU.zmag	340
1200	201	M201:RAW_IMU.xacc	576
1200	201	M201:RAW_IMU.yacc	128
1200	201	M201:RAW_IMU.zacc	-4071
1200	201	M201:RAW_IMU.xmag	47
1200	201	M201:RAW_IMU.ymag	-141
1200	201	M201:RAW_IMU.zmag	331
1304	201	M201:RAW_IMU.xacc	320
1304	201	M201:RAW_IMU.yacc	192
1304	201	M201:RAW_IMU.zacc	-4062
1304	201	M201:RAW_IMU.xmag	48
1304	201	M201:RAW_IMU.ymag	-136
1304	201	M201:RAW_IMU.zmag	330
1400	201	M201:RAW_IMU.xacc	576
1400	201	M201:RAW_IMU.yacc	192
1400	201	M201:RAW_IMU.zacc	-4054
1400	201	M201:RAW_IMU.xmag	48
1400	201	M201:RAW_IMU.ymag	-140
1400	201	M201:RAW_IMU.zmag	331
1500	201	M201:RAW_IMU.xacc	576
1500	201	M201:RAW_IMU.yacc	128
1500	201	M201:RAW_IMU.zacc	-4067
1500	201	M201:RAW_IMU.xmag	48
1500	201	M201:RAW_IMU.ymag	-135
1500	201	M201:RAW_IMU.zmag	328
1604	201	M201:RAW_IMU.xacc	512
1604	201	M201:RAW_IMU.yacc	128
1604	201	M201:RAW_IMU.zacc	-4062
1604	201	M201:RAW_IMU.xmag	48
1604	201	M201:RAW_IMU.ymag	-135
1604	201	M201:RAW_IMU.zmag	332
1700	201	M201:RAW_IMU.xacc	384
1700	201	M201:RAW_IMU.yacc	192
1700	201	M201:RAW_IMU.zacc	-4053
1700	201	M201:RAW_IMU.xmag	49
1700	201	M201:RAW_IMU.ymag	-138
1700	201	M201:RAW_IMU.zmag	336
1804	201	M201:RAW_IMU.xacc	384
1804	201	M201:RAW_IMU.yacc	128
1804	201	M201:RAW_IMU.zacc	-4068
1804	201	M201:RAW_IMU.xmag	49
1804	201	M201:RAW_IMU.ymag	-135
1804	201	M201:RAW_IMU.zmag	332
1900	201	M201:RAW_IMU.xacc	320
1900	201	M201:RAW_IMU.yacc	128
1900	201	M201:RAW_IMU.zacc	-4067
1900	201	M201:RAW_IMU.xmag	49
1900	201	M201:RAW_IMU.ymag	-134
1900	201	M201:RAW_IMU.zmag	330
2000	201	M201:RAW_IMU.xacc	576
2000	201	M201:RAW_IMU.yacc	128
2000	201	M201:RAW_IMU.zacc	-4064
2000	201	M201:RAW_IMU.xmag	46
2000	201	M201:RAW_IMU.ymag	-133
2000	201	M201:RAW_IMU.zmag	331
2104	201	M201:RAW_IMU.xacc	576
2104	201	M201:RAW_IMU.yacc	192
2104	201	M201:RAW_IMU.zacc	-4068
2104	201	M201:RAW_IMU.xmag	49
2104	201	M201:RAW_IMU.ymag	-136
2104	201	M201:RAW_IMU.zmag	331
2200	201	M201:RAW_IMU.xacc	320
2200	201	M201:RAW_IMU.yacc	192
2200	201	M201:RAW_IMU.zacc	-4062
2200	201	M201:RAW_IMU.xmag	47
2200	201	M201:RAW_IMU.ymag	-129
2200	201	M201:RAW_IMU.zmag	331
2304	201	M201:RAW_IMU.xacc	320
2304	201	M201:RAW_IMU.yacc	128
2304	201	M201:RAW_IMU.zacc	-4063
2304	201	M201:RAW_IMU.xmag	49
2304	201	M201:RAW_IMU.ymag	-135
2304	201	M201:RAW_IMU.zmag	325
2400	201	M201:RAW_IMU.xacc	640
2400	201	M201:RAW_IMU.yacc	192
2400	201	M201:RAW_IMU.zacc	-4076
2400	201	M201:RAW_IMU.xmag	47
2400	201	M201:RAW_IMU.ymag	-136
2400	201	M201:RAW_IMU.zmag	330
2500	201	M201:RAW_IMU.xacc	640
2500	201	M201:RAW_IMU.yacc	128
2500	201	M201:RAW_IMU.zacc	-4059
2500	201	M201:RAW_IMU.xmag	50
2500	201	M201:RAW_IMU.ymag	-135
2500	201	M201:RAW_IMU.zmag	330
2604	201	M201:RAW_IMU.xacc	576
2604	201	M201:RAW_IMU.yacc	192
2604	201	M201:RAW_IMU.zacc	-4072
2604	201	M201:RAW_IMU.xmag	47
2604	201	M201:RAW_IMU.ymag	-125
2604	201	M201:RAW_IMU.zmag	336
2700	201	M201:RAW_IMU.xacc	576
2700	201	M201:RAW_IMU.yacc	128
2700	201	M201:RAW_IMU.zacc	-4068
2700	201	M201:RAW_IMU.xmag	49
2700	201	M201:RAW_IMU.ymag	-124
2700	201	M201:RAW_IMU.zmag	336
2804	201	M201:RAW_IMU.xacc	576
2804	201	M201:RAW_IMU.yacc	128
2804	201	M201:RAW_IMU.zacc	-4063
2804	201	M201:RAW_IMU.xmag	50
2804	201	M201:RAW_IMU.ymag	-136
2804	201	M201:RAW_IMU.zmag	338
2900	201	M201:RAW_IMU.xacc	576
2900	201	M201:RAW_IMU.yacc	128
2900	201	M201:RAW_IMU.zacc	-4066
2900	201	M201:RAW_IMU.xmag	50
2900	201	M201:RAW_IMU.ymag	-134
2900	201	M201:RAW_IMU.zmag	324
3000	201	M201:RAW_IMU.xacc	256
3000	201	M201:RAW_IMU.yacc	192
3000	201	M201:RAW_IMU.zacc	-4072
3000	201	M201:RAW_IMU.xmag	49
3000	201	M201:RAW_IMU.ymag	-135
3000	201	M201:RAW_IMU.zmag	331
3104	201	M201:RAW_IMU.xacc	576
3104	201	M201:RAW_IMU.yacc	128
3104	201	M201:RAW_IMU.zacc	-4065
3104	201	M201:RAW_IMU.xmag	51
3104	201	M201:RAW_IMU.ymag	-136
3104	201	M201:RAW_IMU.zmag	336
3200	201	M201:RAW_IMU.xacc	576
3200	201	M201:RAW_IMU.yacc	192
3200	201	M201:RAW_IMU.zacc	-4065
3200	201	M201:RAW_IMU.xmag	49
3200	201	M201:RAW_IMU.ymag	-132
3200	201	M201:RAW_IMU.zmag	331
3304	201	M201:RAW_IMU.xacc	576
3304	201	M201:RAW_IMU.yacc	192
3304	201	M201:RAW_IMU.zacc	-4064
3304	201	M201:RAW_IMU.xmag	52
3304	201	M201:RAW_IMU.ymag	-138
3304	201	M201:RAW_IMU.zmag	330
3400	201	M201:RAW_IMU.xacc	320
3400	201	M201:RAW_IMU.yacc	192
3400	201	M201:RAW_IMU.zacc	-4066
3400	201	M201:RAW_IMU.xmag	51
3400	201	M201:RAW_IMU.ymag	-135
3400	201	M201:RAW_IMU.zmag	329
3500	201	M201:RAW_IMU.xacc	640
3500	201	M201:RAW_IMU.yacc	128
3500	201	M201:RAW_IMU.zacc	-4070
3500	201	M201:RAW_IMU.xmag	51
3500	201	M201:RAW_IMU.ymag	-134
3500	201	M201:RAW_IMU.zmag	331
3604	201	M201:RAW_IMU.xacc	576
3604	201	M201:RAW_IMU.yacc	192
3604	201	M201:RAW_IMU.zacc	-4058
3604	201	M201:RAW_IMU.xmag	49
3604	201	M201:RAW_IMU.ymag	-133
3604	201	M201:RAW_IMU.zmag	331
3700	201	M201:RAW_IMU.xacc	576
3700	201	M201:RAW_IMU.yacc	128
3700	201	M201:RAW_IMU.zacc	-4066
3700	201	M201:RAW_IMU.xmag	52
3700	201	M201:RAW_IMU.ymag	-134
3700	201	M201:RAW_IMU.zmag	328
3804	201	M201:RAW_IMU.xacc	640
3804	201	M201:RAW_IMU.yacc	256
3804	201	M201:RAW_IMU.zacc	-4079
3804	201	M201:RAW_IMU.xmag	61
3804	201	M201:RAW_IMU.ymag	-133
3804	201	M201:RAW_IMU.zmag	336
3900	201	M201:RAW_IMU.xacc	192
3900	201	M201:RAW_IMU.yacc	128
3900	201	M201:RAW_IMU.zacc	-4073
3900	201	M201:RAW_IMU.xmag	129
3900	201	M201:RAW_IMU.ymag	-130
3900	201	M201:RAW_IMU.zmag	309
4000	201	M201:RAW_IMU.xacc	-192
4000	201	M201:RAW_IMU.yacc	256
4000	201	M201:RAW_IMU.zacc	-4282
4000	201	M201:RAW_IMU.xmag	103
4000	201	M201:RAW_IMU.ymag	-131
4000	201	M201:RAW_IMU.zmag	317
4104	201	M201:RAW_IMU.xacc	384
4104	201	M201:RAW_IMU.yacc	192
4104	201	M201:RAW_IMU.zacc	-4051
4104	201	M201:RAW_IMU.xmag	0
4104	201	M201:RAW_IMU.ymag	-134
4104	201	M201:RAW_IMU.zmag	335
4200	201	M201:RAW_IMU.xacc	1152
4200	201	M201:RAW_IMU.yacc	192
4200	201	M201:RAW_IMU.zacc	-3585
4200	201	M201:RAW_IMU.xmag	12
4200	201	M201:RAW_IMU.ymag	-131
4200	201	M201:RAW_IMU.zmag	329
4304	201	M201:RAW_IMU.xacc	384
4304	201	M201:RAW_IMU.yacc	192
4304	201	M201:RAW_IMU.zacc	-3843
4304	201	M201:RAW_IMU.xmag	87
4304	201	M201:RAW_IMU.ymag	-129
4304	201	M201:RAW_IMU.zmag	324
4400	201	M201:RAW_IMU.xacc	128
4400	201	M201:RAW_IMU.yacc	128
4400	201	M201:RAW_IMU.zacc	-4063
4400	201	M201:RAW_IMU.xmag	116
4400	201	M201:RAW_IMU.ymag	-130
4400	201	M201:RAW_IMU.zmag	310
4500	201	M201:RAW_IMU.xacc	-256
4500	201	M201:RAW_IMU.yacc	192
4500	201	M201:RAW_IMU.zacc	-3844
4500	201	M201:RAW_IMU.xmag	165
4500	201	M201:RAW_IMU.ymag	-131
4500	201	M201:RAW_IMU.zmag	290
4604	201	M201:RAW_IMU.xacc	-704
4604	201	M201:RAW_IMU.yacc	128
4604	201	M201:RAW_IMU.zacc	-4080
4604	201	M201:RAW_IMU.xmag	193
4604	201	M201:RAW_IMU.ymag	-126
4604	201	M201:RAW_IMU.zmag	280
4700	201	M201:RAW_IMU.xacc	-896
4700	201	M201:RAW_IMU.yacc	128
4700	201	M201:RAW_IMU.zacc	-3854
4700	201	M201:RAW_IMU.xmag	247
4700	201	M201:RAW_IMU.ymag	-126
4700	201	M201:RAW_IMU.zmag	241
4804	201	M201:RAW_IMU.xacc	-1728
4804	201	M201:RAW_IMU.yacc	64
4804	201	M201:RAW_IMU.zacc	-3832
4804	201	M201:RAW_IMU.xmag	279
4804	201	M201:RAW_IMU.ymag	-122
4804	201	M201:RAW_IMU.zmag	212
4900	201	M201:RAW_IMU.xacc	-1920
4900	201	M201:RAW_IMU.yacc	192
4900	201	M201:RAW_IMU.zacc	-3581
4900	201	M201:RAW_IMU.xmag	319
4900	201	M201:RAW_IMU.ymag	-120
4900	201	M201:RAW_IMU.zmag	161
5000	201	M201:RAW_IMU.xacc	-2432
5000	201	M201:RAW_IMU.yacc	64
5000	201	M201:RAW_IMU.zacc	-3321
5000	201	M201:RAW_IMU.xmag	338
5000	201	M201:RAW_IMU.ymag	-119
5000	201	M201:RAW_IMU.zmag	144
5104	201	M201:RAW_IMU.xacc	-2688
5104	201	M201:RAW_IMU.yacc	128
5104	201	M201:RAW_IMU.zacc	-3055
5104	201	M201:RAW_IMU.xmag	362
5104	201	M201:RAW_IMU.ymag	-104
5104	201	M201:RAW_IMU.zmag	97
5200	201	M201:RAW_IMU.xacc	-3200
5200	201	M201:RAW_IMU.yacc	128
5200	201	M201:RAW_IMU.zacc	-2806
5200	201	M201:RAW_IMU.xmag	378
5200	201	M201:RAW_IMU.ymag	-115
5200	201	M201:RAW_IMU.zmag	65
5304	201	M201:RAW_IMU.xacc	-3520
5304	201	M201:RAW_IMU.yacc	192
5304	201	M201:RAW_IMU.zacc	-2073
5304	201	M201:RAW_IMU.xmag	400
5304	201	M201:RAW_IMU.ymag	-112
5304	201	M201:RAW_IMU.zmag	-10
5400	201	M201:RAW_IMU.xacc	-3648
5400	201	M201:RAW_IMU.yacc	128
5400	201	M201:RAW_IMU.zacc	-1788
5400	201	M201:RAW_IMU.xmag	405
5400	201	M201:RAW_IMU.ymag	-109
5400	201	M201:RAW_IMU.zmag	-65
5500	201	M201:RAW_IMU.xacc	-3968
5500	201	M201:RAW_IMU.yacc	256
5500	201	M201:RAW_IMU.zacc	-1264
5500	201	M201:RAW_IMU.xmag	404
5500	201	M201:RAW_IMU.ymag	-107
5500	201	M201:RAW_IMU.zmag	-133
5604	201	M201:RAW_IMU.xacc	-4096
5604	201	M201:RAW_IMU.yacc	-192
5604	201	M201:RAW_IMU.zacc	-506
5604	201	M201:RAW_IMU.xmag	401
5604	201	M201:RAW_IMU.ymag	-107
5604	201	M201:RAW_IMU.zmag	-163
5700	201	M201:RAW_IMU.xacc	-4160
5700	201	M201:RAW_IMU.yacc	192
5700	201	M201:RAW_IMU.zacc	-250
5700	201	M201:RAW_IMU.xmag	371
5700	201	M201:RAW_IMU.ymag	-104
5700	201	M201:RAW_IMU.zmag	-247
5804	201	M201:RAW_IMU.xacc	-4352
5804	201	M201:RAW_IMU.yacc	-64
5804	201	M201:RAW_IMU.zacc	556
5804	201	M201:RAW_IMU.xmag	349
5804	201	M201:RAW_IMU.ymag	-105
5804	201	M201:RAW_IMU.zmag	-297
5900	201	M201:RAW_IMU.xacc	-4096
5900	201	M201:RAW_IMU.yacc	-64
5900	201	M201:RAW_IMU.zacc	1261
5900	201	M201:RAW_IMU.xmag	323
5900	201	M201:RAW_IMU.ymag	-105
5900	201	M201:RAW_IMU.zmag	-335
6000	201	M201:RAW_IMU.xacc	-4096
6000	201	M201:RAW_IMU.yacc	-64
6000	201	M201:RAW_IMU.zacc	1778
6000	201	M201:RAW_IMU.xmag	287
6000	201	M201:RAW_IMU.ymag	-107
6000	201	M201:RAW_IMU.zmag	-374
6104	201	M201:RAW_IMU.xacc	-3584
6104	201	M201:RAW_IMU.yacc	-64
6104	201	M201:RAW_IMU.zacc	2309
6104	201	M201:RAW_IMU.xmag	187
6104	201	M201:RAW_IMU.ymag	-107
6104	201	M201:RAW_IMU.zmag	-444
6200	201	M201:RAW_IMU.xacc	-3072
6200	201	M201:RAW_IMU.yacc	-64
6200	201	M201:RAW_IMU.zacc	3079
6200	201	M201:RAW_IMU.xmag	137
6200	201	M201:RAW_IMU.ymag	-106
6200	201	M201:RAW_IMU.zmag	-464
6304	201	M201:RAW_IMU.xacc	-2304
6304	201	M201:RAW_IMU.yacc	0
6304	201	M201:RAW_IMU.zacc	3588
6304	201	M201:RAW_IMU.xmag	11
6304	201	M201:RAW_IMU.ymag	-109
6304	201	M201:RAW_IMU.zmag	-486
6400	201	M201:RAW_IMU.xacc	-1344
6400	201	M201:RAW_IMU.yacc	192
6400	201	M201:RAW_IMU.zacc	4349
6400	201	M201:RAW_IMU.xmag	-62
6400	201	M201:RAW_IMU.ymag	-113
6400	201	M201:RAW_IMU.zmag	-491
6500	201	M201:RAW_IMU.xacc	-448
6500	201	M201:RAW_IMU.yacc	-128
6500	201	M201:RAW_IMU.zacc	4337
6500	201	M201:RAW_IMU.xmag	-174
6500	201	M201:RAW_IMU.ymag	-118
6500	201	M201:RAW_IMU.zmag	-464
6604	201	M201:RAW_IMU.xacc	384
6604	201	M201:RAW_IMU.yacc	-128
6604	201	M201:RAW_IMU.zacc	4361
6604	201	M201:RAW_IMU.xmag	-243
6604	201	M201:RAW_IMU.ymag	-111
6604	201	M201:RAW_IMU.zmag	-430
6700	201	M201:RAW_IMU.xacc	1536
6700	201	M201:RAW_IMU.yacc	0
6700	201	M201:RAW_IMU.zacc	3830
6700	201	M201:RAW_IMU.xmag	-383
6700	201	M201:RAW_IMU.ymag	-126
6700	201	M201:RAW_IMU.zmag	-296
6804	201	M201:RAW_IMU.xacc	2624
6804	201	M201:RAW_IMU.yacc	-64
6804	201	M201:RAW_IMU.zacc	3048
6804	201	M201:RAW_IMU.xmag	-415
6804	201	M201:RAW_IMU.ymag	-127
6804	201	M201:RAW_IMU.zmag	-233
6900	201	M201:RAW_IMU.xacc	3264
6900	201	M201:RAW_IMU.yacc	192
6900	201	M201:RAW_IMU.zacc	2588
6900	201	M201:RAW_IMU.xmag	-444
6900	201	M201:RAW_IMU.ymag	-132
6900	201	M201:RAW_IMU.zmag	-131
7000	201	M201:RAW_IMU.xacc	3712
7000	201	M201:RAW_IMU.yacc	-64
7000	201	M201:RAW_IMU.zacc	1520
7000	201	M201:RAW_IMU.xmag	-446
7000	201	M201:RAW_IMU.ymag	-134
7000	201	M201:RAW_IMU.zmag	-41
7104	201	M201:RAW_IMU.xacc	3904
7104	201	M201:RAW_IMU.yacc	-128
7104	201	M201:RAW_IMU.zacc	226
7104	201	M201:RAW_IMU.xmag	-404
7104	201	M201:RAW_IMU.ymag	-129
7104	201	M201:RAW_IMU.zmag	113
7200	201	M201:RAW_IMU.xacc	3776
7200	201	M201:RAW_IMU.yacc	192
7200	201	M201:RAW_IMU.zacc	-795
7200	201	M201:RAW_IMU.xmag	-363
7200	201	M201:RAW_IMU.ymag	-134
7200	201	M201:RAW_IMU.zmag	177
7304	201	M201:RAW_IMU.xacc	3072
7304	201	M201:RAW_IMU.yacc	-192
7304	201	M201:RAW_IMU.zacc	-1802
7304	201	M201:RAW_IMU.xmag	-254
7304	201	M201:RAW_IMU.ymag	-136
7304	201	M201:RAW_IMU.zmag	274
7400	201	M201:RAW_IMU.xacc	2816
7400	201	M201:RAW_IMU.yacc	-128
7400	201	M201:RAW_IMU.zacc	-2566
7400	201	M201:RAW_IMU.xmag	-212
7400	201	M201:RAW_IMU.ymag	-135
7400	201	M201:RAW_IMU.zmag	293
7500	201	M201:RAW_IMU.xacc	2496
7500	201	M201:RAW_IMU.yacc	192
7500	201	M201:RAW_IMU.zacc	-3096
7500	201	M201:RAW_IMU.xmag	-134
7500	201	M201:RAW_IMU.ymag	-133
7500	201	M201:RAW_IMU.zmag	320
7604	201	M201:RAW_IMU.xacc	1920
7604	201	M201:RAW_IMU.yacc	64
7604	201	M201:RAW_IMU.zacc	-3574
7604	201	M201:RAW_IMU.xmag	-93
7604	201	M201:RAW_IMU.ymag	-136
7604	201	M201:RAW_IMU.zmag	330
7700	201	M201:RAW_IMU.xacc	1472
7700	201	M201:RAW_IMU.yacc	192
7700	201	M201:RAW_IMU.zacc	-3817
7700	201	M201:RAW_IMU.xmag	-42
7700	201	M201:RAW_IMU.ymag	-135
7700	201	M201:RAW_IMU.zmag	335
7804	201	M201:RAW_IMU.xacc	1024
7804	201	M201:RAW_IMU.yacc	-64
7804	201	M201:RAW_IMU.zacc	-3831
7804	201	M201:RAW_IMU.xmag	-4
7804	201	M201:RAW_IMU.ymag	-132
7804	201	M201:RAW_IMU.zmag	344
7900	201	M201:RAW_IMU.xacc	896
7900	201	M201:RAW_IMU.yacc	64
7900	201	M201:RAW_IMU.zacc	-3832
7900	201	M201:RAW_IMU.xmag	27
7900	201	M201:RAW_IMU.ymag	-133
7900	201	M201:RAW_IMU.zmag	336
8000	201	M201:RAW_IMU.xacc	640
8000	201	M201:RAW_IMU.yacc	128
8000	201	M201:RAW_IMU.zacc	-4084
8000	201	M201:RAW_IMU.xmag	55
8000	201	M201:RAW_IMU.ymag	-133
8000	201	M201:RAW_IMU.zmag	328
8104	201	M201:RAW_IMU.xacc	320
8104	201	M201:RAW_IMU.yacc	128
8104	201	M201:RAW_IMU.zacc	-3842
8104	201	M201:RAW_IMU.xmag	105
8104	201	M201:RAW_IMU.ymag	-134
8104	201	M201:RAW_IMU.zmag	317
8200	201	M201:RAW_IMU.xacc	0
8200	201	M201:RAW_IMU.yacc	128
8200	201	M201:RAW_IMU.zacc	-3910
8200	201	M201:RAW_IMU.xmag	116
8200	201	M201:RAW_IMU.ymag	-134
8200	201	M201:RAW_IMU.zmag	319
8304	201	M201:RAW_IMU.xacc	-192
8304	201	M201:RAW_IMU.yacc	128
8304	201	M201:RAW_IMU.zacc	-4062
8304	201	M201:RAW_IMU.xmag	119
8304	201	M201:RAW_IMU.ymag	-114
8304	201	M201:RAW_IMU.zmag	315
8400	201	M201:RAW_IMU.xacc	-128
8400	201	M201:RAW_IMU.yacc	128
8400	201	M201:RAW_IMU.zacc	-3923
8400	201	M201:RAW_IMU.xmag	114
8400	201	M201:RAW_IMU.ymag	-115
8400	201	M201:RAW_IMU.zmag	308
8500	201	M201:RAW_IMU.xacc	-192
8500	201	M201:RAW_IMU.yacc	128
8500	201	M201:RAW_IMU.zacc	-4075
8500	201	M201:RAW_IMU.xmag	115
8500	201	M201:RAW_IMU.ymag	-112
8500	201	M201:RAW_IMU.zmag	308
8604	201	M201:RAW_IMU.xacc	-448
8604	201	M201:RAW_IMU.yacc	192
8604	201	M201:RAW_IMU.zacc	-4069
8604	201	M201:RAW_IMU.xmag	114
8604	201	M201:RAW_IMU.ymag	-109
8604	201	M201:RAW_IMU.zmag	304
8700	201	M201:RAW_IMU.xacc	-384
8700	201	M201:RAW_IMU.yacc	64
8700	201	M201:RAW_IMU.zacc	-4095
8700	201	M201:RAW_IMU.xmag	120
8700	201	M201:RAW_IMU.ymag	-106
8700	201	M201:RAW_IMU.zmag	306
8804	201	M201:RAW_IMU.xacc	-1024
8804	201	M201:RAW_IMU.yacc	-192
8804	201	M201:RAW_IMU.zacc	-3834
8804	201	M201:RAW_IMU.xmag	191
8804	201	M201:RAW_IMU.ymag	-78
8804	201	M201:RAW_IMU.zmag	266
8900	201	M201:RAW_IMU.xacc	-1280
8900	201	M201:RAW_IMU.yacc	-192
8900	201	M201:RAW_IMU.zacc	-4071
8900	201	M201:RAW_IMU.xmag	204
8900	201	M201:RAW_IMU.ymag	-89
8900	201	M201:RAW_IMU.zmag	255
9000	201	M201:RAW_IMU.xacc	-1280
9000	201	M201:RAW_IMU.yacc	-64
9000	201	M201:RAW_IMU.zacc	-4055
9000	201	M201:RAW_IMU.xmag	196
9000	201	M201:RAW_IMU.ymag	-86
9000	201	M201:RAW_IMU.zmag	257
9104	201	M201:RAW_IMU.xacc	-1088
9104	201	M201:RAW_IMU.yacc	64
9104	201	M201:RAW_IMU.zacc	-3822
9104	201	M201:RAW_IMU.xmag	210
9104	201	M201:RAW_IMU.ymag	-74
9104	201	M201:RAW_IMU.zmag	251
9200	201	M201:RAW_IMU.xacc	-1792
9200	201	M201:RAW_IMU.yacc	-448
9200	201	M201:RAW_IMU.zacc	-4078
9200	201	M201:RAW_IMU.xmag	270
9200	201	M201:RAW_IMU.ymag	-72
9200	201	M201:RAW_IMU.zmag	201
9304	201	M201:RAW_IMU.xacc	-2240
9304	201	M201:RAW_IMU.yacc	-128
9304	201	M201:RAW_IMU.zacc	-3346
9304	201	M201:RAW_IMU.xmag	293
9304	201	M201:RAW_IMU.ymag	-66
9304	201	M201:RAW_IMU.zmag	170
9400	201	M201:RAW_IMU.xacc	-2560
9400	201	M201:RAW_IMU.yacc	-320
9400	201	M201:RAW_IMU.zacc	-3348
9400	201	M201:RAW_IMU.xmag	300
9400	201	M201:RAW_IMU.ymag	-60
9400	201	M201:RAW_IMU.zmag	157
9500	201	M201:RAW_IMU.xacc	-2304
9500	201	M201:RAW_IMU.yacc	-256
9500	201	M201:RAW_IMU.zacc	-3313
9500	201	M201:RAW_IMU.xmag	306
9500	201	M201:RAW_IMU.ymag	-56
9500	201	M201:RAW_IMU.zmag	141
9604	201	M201:RAW_IMU.xacc	-2816
9604	201	M201:RAW_IMU.yacc	-448
9604	201	M201:RAW_IMU.zacc	-3061
9604	201	M201:RAW_IMU.xmag	338
9604	201	M201:RAW_IMU.ymag	-52
9604	201	M201:RAW_IMU.zmag	88
9700	201	M201:RAW_IMU.xacc	-3200
9700	201	M201:RAW_IMU.yacc	-384
9700	201	M201:RAW_IMU.zacc	-2691
9700	201	M201:RAW_IMU.xmag	342
9700	201	M201:RAW_IMU.ymag	-46
9700	201	M201:RAW_IMU.zmag	78
9804	201	M201:RAW_IMU.xacc	-3264
9804	201	M201:RAW_IMU.yacc	-256
9804	201	M201:RAW_IMU.zacc	-2776
9804	201	M201:RAW_IMU.xmag	355
9804	201	M201:RAW_IMU.ymag	-43
9804	201	M201:RAW_IMU.zmag	43
9900	201	M201:RAW_IMU.xacc	-3456
9900	201	M201:RAW_IMU.yacc	-256
9900	201	M201:RAW_IMU.zacc	-2549
9900	201	M201:RAW_IMU.xmag	367
9900	201	M201:RAW_IMU.ymag	-36
9900	201	M201:RAW_IMU.zmag	10
10000	201	M201:RAW_IMU.xacc	-3840
10000	201	M201:RAW_IMU.yacc	-704
10000	201	M201:RAW_IMU.zacc	-2030
10000	201	M201:RAW_IMU.xmag	366
10000	201	M201:RAW_IMU.ymag	-35
10000	201	M201:RAW_IMU.zmag	2
10104	201	M201:RAW_IMU.xacc	-3392
10104	201	M201:RAW_IMU.yacc	-256
10104	201	M201:RAW_IMU.zacc	-2278
10104	201	M201:RAW_IMU.xmag	362
10104	201	M201:RAW_IMU.ymag	-34
10104	201	M201:RAW_IMU.zmag	20
10200	201	M201:RAW_IMU.xacc	-3328
10200	201	M201:RAW_IMU.yacc	-512
10200	201	M201:RAW_IMU.zacc	-2260
10200	201	M201:RAW_IMU.xmag	367
10200	201	M201:RAW_IMU.ymag	-35
10200	201	M201:RAW_IMU.zmag	-1
10304	201	M201:RAW_IMU.xacc	-3520
10304	201	M201:RAW_IMU.yacc	-512
10304	201	M201:RAW_IMU.zacc	-2004
10304	201	M201:RAW_IMU.xmag	370
10304	201	M201:RAW_IMU.ymag	-33
10304	201	M201:RAW_IMU.zmag	-23
10400	201	M201:RAW_IMU.xacc	-3840
10400	201	M201:RAW_IMU.yacc	-704
10400	201	M201:RAW_IMU.zacc	-1550
10400	201	M201:RAW_IMU.xmag	374
10400	201	M201:RAW_IMU.ymag	-33
10400	201	M201:RAW_IMU.zmag	-49
10500	201	M201:RAW_IMU.xacc	-3776
10500	201	M201:RAW_IMU.yacc	-576
10500	201	M201:RAW_IMU.zacc	-1299
10500	201	M201:RAW_IMU.xmag	374
10500	201	M201:RAW_IMU.ymag	-33
10500	201	M201:RAW_IMU.zmag	-88
10604	201	M201:RAW_IMU.xacc	-4096
10604	201	M201:RAW_IMU.yacc	-704
10604	201	M201:RAW_IMU.zacc	-771
10604	201	M201:RAW_IMU.xmag	377
10604	201	M201:RAW_IMU.ymag	-29
10604	201	M201:RAW_IMU.zmag	-132
10700	201	M201:RAW_IMU.xacc	-3904
10700	201	M201:RAW_IMU.yacc	-704
10700	201	M201:RAW_IMU.zacc	-278
10700	201	M201:RAW_IMU.xmag	369
10700	201	M201:RAW_IMU.ymag	-18
10700	201	M201:RAW_IMU.zmag	-159
10804	201	M201:RAW_IMU.xacc	-3904
10804	201	M201:RAW_IMU.yacc	-512
10804	201	M201:RAW_IMU.zacc	-230
10804	201	M201:RAW_IMU.xmag	339
10804	201	M201:RAW_IMU.ymag	-33
10804	201	M201:RAW_IMU.zmag	-241
10900	201	M201:RAW_IMU.xacc	-3904
10900	201	M201:RAW_IMU.yacc	-704
10900	201	M201:RAW_IMU.zacc	524
10900	201	M201:RAW_IMU.xmag	330
10900	201	M201:RAW_IMU.ymag	-34
10900	201	M201:RAW_IMU.zmag	-274
11000	201	M201:RAW_IMU.xacc	-3904
11000	201	M201:RAW_IMU.yacc	-704
11000	201	M201:RAW_IMU.zacc	1037
11000	201	M201:RAW_IMU.xmag	292
11000	201	M201:RAW_IMU.ymag	-41
11000	201	M201:RAW_IMU.zmag	-329
11104	201	M201:RAW_IMU.xacc	-3904
11104	201	M201:RAW_IMU.yacc	-576
11104	201	M201:RAW_IMU.zacc	1558
11104	201	M201:RAW_IMU.xmag	265
11104	201	M201:RAW_IMU.ymag	-35
11104	201	M201:RAW_IMU.zmag	-362
11200	201	M201:RAW_IMU.xacc	-3776
11200	201	M201:RAW_IMU.yacc	-576
11200	201	M201:RAW_IMU.zacc	2055
11200	201	M201:RAW_IMU.xmag	211
11200	201	M201:RAW_IMU.ymag	-59
11200	201	M201:RAW_IMU.zmag	-413
11304	201	M201:RAW_IMU.xacc	-3520
11304	201	M201:RAW_IMU.yacc	-640
11304	201	M201:RAW_IMU.zacc	2561
11304	201	M201:RAW_IMU.xmag	180
11304	201	M201:RAW_IMU.ymag	-67
11304	201	M201:RAW_IMU.zmag	-434
11400	201	M201:RAW_IMU.xacc	-3072
11400	201	M201:RAW_IMU.yacc	-640
11400	201	M201:RAW_IMU.zacc	3082
11400	201	M201:RAW_IMU.xmag	101
11400	201	M201:RAW_IMU.ymag	-81
11400	201	M201:RAW_IMU.zmag	-472
11500	201	M201:RAW_IMU.xacc	-2368
11500	201	M201:RAW_IMU.yacc	-320
11500	201	M201:RAW_IMU.zacc	3339
11500	201	M201:RAW_IMU.xmag	60
11500	201	M201:RAW_IMU.ymag	-91
11500	201	M201:RAW_IMU.zmag	-484
11604	201	M201:RAW_IMU.xacc	-2048
11604	201	M201:RAW_IMU.yacc	-320
11604	201	M201:RAW_IMU.zacc	4093
11604	201	M201:RAW_IMU.xmag	-30
11604	201	M201:RAW_IMU.ymag	-110
11604	201	M201:RAW_IMU.zmag	-494
11700	201	M201:RAW_IMU.xacc	-1280
11700	201	M201:RAW_IMU.yacc	-256
11700	201	M201:RAW_IMU.zacc	4094
11700	201	M201:RAW_IMU.xmag	-76
11700	201	M201:RAW_IMU.ymag	-107
11700	201	M201:RAW_IMU.zmag	-492
11804	201	M201:RAW_IMU.xacc	-512
11804	201	M201:RAW_IMU.yacc	-64
11804	201	M201:RAW_IMU.zacc	4352
11804	201	M201:RAW_IMU.xmag	-196
11804	201	M201:RAW_IMU.ymag	-146
11804	201	M201:RAW_IMU.zmag	-464
11900	201	M201:RAW_IMU.xacc	256
11900	201	M201:RAW_IMU.yacc	-64
11900	201	M201:RAW_IMU.zacc	4098
11900	201	M201:RAW_IMU.xmag	-250
11900	201	M201:RAW_IMU.ymag	-159
11900	201	M201:RAW_IMU.zmag	-439
12000	201	M201:RAW_IMU.xacc	1152
12000	201	M201:RAW_IMU.yacc	64
12000	201	M201:RAW_IMU.zacc	4108
12000	201	M201:RAW_IMU.xmag	-337
12000	201	M201:RAW_IMU.ymag	-177
12000	201	M201:RAW_IMU.zmag	-373
12104	201	M201:RAW_IMU.xacc	2048
12104	201	M201:RAW_IMU.yacc	256
12104	201	M201:RAW_IMU.zacc	3837
12104	201	M201:RAW_IMU.xmag	-390
12104	201	M201:RAW_IMU.ymag	-190
12104	201	M201:RAW_IMU.zmag	-315
12200	201	M201:RAW_IMU.xacc	2944
12200	201	M201:RAW_IMU.yacc	320
12200	201	M201:RAW_IMU.zacc	3060
12200	201	M201:RAW_IMU.xmag	-454
12200	201	M201:RAW_IMU.ymag	-195
12200	201	M201:RAW_IMU.zmag	-168
12304	201	M201:RAW_IMU.xacc	3456
12304	201	M201:RAW_IMU.yacc	576
12304	201	M201:RAW_IMU.zacc	2295
12304	201	M201:RAW_IMU.xmag	-463
12304	201	M201:RAW_IMU.ymag	-209
12304	201	M201:RAW_IMU.zmag	-136
12400	201	M201:RAW_IMU.xacc	3648
12400	201	M201:RAW_IMU.yacc	640
12400	201	M201:RAW_IMU.zacc	1292
12400	201	M201:RAW_IMU.xmag	-464
12400	201	M201:RAW_IMU.ymag	-207
12400	201	M201:RAW_IMU.zmag	-26
12500	201	M201:RAW_IMU.xacc	3904
12500	201	M201:RAW_IMU.yacc	704
12500	201	M201:RAW_IMU.zacc	540
12500	201	M201:RAW_IMU.xmag	-458
12500	201	M201:RAW_IMU.ymag	-207
12500	201	M201:RAW_IMU.zmag	27
12604	201	M201:RAW_IMU.xacc	3712
12604	201	M201:RAW_IMU.yacc	640
12604	201	M201:RAW_IMU.zacc	-8
12604	201	M201:RAW_IMU.xmag	-423
12604	201	M201:RAW_IMU.ymag	-198
12604	201	M201:RAW_IMU.zmag	127
12700	201	M201:RAW_IMU.xacc	3648
12700	201	M201:RAW_IMU.yacc	576
12700	201	M201:RAW_IMU.zacc	-786
12700	201	M201:RAW_IMU.xmag	-386
12700	201	M201:RAW_IMU.ymag	-195
12700	201	M201:RAW_IMU.zmag	171
12804	201	M201:RAW_IMU.xacc	3392
12804	201	M201:RAW_IMU.yacc	640
12804	201	M201:RAW_IMU.zacc	-1781
12804	201	M201:RAW_IMU.xmag	-320
12804	201	M201:RAW_IMU.ymag	-182
12804	201	M201:RAW_IMU.zmag	247
12900	201	M201:RAW_IMU.xacc	3264
12900	201	M201:RAW_IMU.yacc	576
12900	201	M201:RAW_IMU.zacc	-2075
12900	201	M201:RAW_IMU.xmag	-304
12900	201	M201:RAW_IMU.ymag	-181
12900	201	M201:RAW_IMU.zmag	256
13000	201	M201:RAW_IMU.xacc	2944
13000	201	M201:RAW_IMU.yacc	704
13000	201	M201:RAW_IMU.zacc	-2556
13000	201	M201:RAW_IMU.xmag	-252
13000	201	M201:RAW_IMU.ymag	-176
13000	201	M201:RAW_IMU.zmag	284
13104	201	M201:RAW_IMU.xacc	2688
13104	201	M201:RAW_IMU.yacc	640
13104	201	M201:RAW_IMU.zacc	-2567
13104	201	M201:RAW_IMU.xmag	-200
13104	201	M201:RAW_IMU.ymag	-162
13104	201	M201:RAW_IMU.zmag	308
13200	201	M201:RAW_IMU.xacc	2304
13200	201	M201:RAW_IMU.yacc	448
13200	201	M201:RAW_IMU.zacc	-3318
13200	201	M201:RAW_IMU.xmag	-169
13200	201	M201:RAW_IMU.ymag	-156
13200	201	M201:RAW_IMU.zmag	319
13304	201	M201:RAW_IMU.xacc	1792
13304	201	M201:RAW_IMU.yacc	512
13304	201	M201:RAW_IMU.zacc	-3576
13304	201	M201:RAW_IMU.xmag	-119
13304	201	M201:RAW_IMU.ymag	-146
13304	201	M201:RAW_IMU.zmag	332
13400	201	M201:RAW_IMU.xacc	1536
13400	201	M201:RAW_IMU.yacc	320
13400	201	M201:RAW_IMU.zacc	-3582
13400	201	M201:RAW_IMU.xmag	-85
13400	201	M201:RAW_IMU.ymag	-138
13400	201	M201:RAW_IMU.zmag	333
13500	201	M201:RAW_IMU.xacc	1088
13500	201	M201:RAW_IMU.yacc	512
13500	201	M201:RAW_IMU.zacc	-4074
13500	201	M201:RAW_IMU.xmag	-25
13500	201	M201:RAW_IMU.ymag	-127
13500	201	M201:RAW_IMU.zmag	333
13604	201	M201:RAW_IMU.xacc	768
13604	201	M201:RAW_IMU.yacc	192
13604	201	M201:RAW_IMU.zacc	-4044
13604	201	M201:RAW_IMU.xmag	-9
13604	201	M201:RAW_IMU.ymag	-121
13604	201	M201:RAW_IMU.zmag	339
13700	201	M201:RAW_IMU.xacc	512
13700	201	M201:RAW_IMU.yacc	192
13700	201	M201:RAW_IMU.zacc	-4079
13700	201	M201:RAW_IMU.xmag	15
13700	201	M201:RAW_IMU.ymag	-124
13700	201	M201:RAW_IMU.zmag	328
13804	201	M201:RAW_IMU.xacc	448
13804	201	M201:RAW_IMU.yacc	384
13804	201	M201:RAW_IMU.zacc	-4042
13804	201	M201:RAW_IMU.xmag	24
13804	201	M201:RAW_IMU.ymag	-116
13804	201	M201:RAW_IMU.zmag	326
13900	201	M201:RAW_IMU.xacc	448
13900	201	M201:RAW_IMU.yacc	384
13900	201	M201:RAW_IMU.zacc	-3948
13900	201	M201:RAW_IMU.xmag	39
13900	201	M201:RAW_IMU.ymag	-118
13900	201	M201:RAW_IMU.zmag	325
14000	201	M201:RAW_IMU.xacc	320
14000	201	M201:RAW_IMU.yacc	64
14000	201	M201:RAW_IMU.zacc	-4037
14000	201	M201:RAW_IMU.xmag	41
14000	201	M201:RAW_IMU.ymag	-110
14000	201	M201:RAW_IMU.zmag	322
14104	201	M201:RAW_IMU.xacc	128
14104	201	M201:RAW_IMU.yacc	128
14104	201	M201:RAW_IMU.zacc	-3987
14104	201	M201:RAW_IMU.xmag	47
14104	201	M201:RAW_IMU.ymag	-97
14104	201	M201:RAW_IMU.zmag	319
14200	201	M201:RAW_IMU.xacc	128
14200	201	M201:RAW_IMU.yacc	128
14200	201	M201:RAW_IMU.zacc	-3849
14200	201	M201:RAW_IMU.xmag	50
14200	201	M201:RAW_IMU.ymag	-100
14200	201	M201:RAW_IMU.zmag	326
14304	201	M201:RAW_IMU.xacc	64
14304	201	M201:RAW_IMU.yacc	128
14304	201	M201:RAW_IMU.zacc	-3960
14304	201	M201:RAW_IMU.xmag	62
14304	201	M201:RAW_IMU.ymag	-96
14304	201	M201:RAW_IMU.zmag	312
14400	201	M201:RAW_IMU.xacc	0
14400	201	M201:RAW_IMU.yacc	128
14400	201	M201:RAW_IMU.zacc	-3841
14400	201	M201:RAW_IMU.xmag	65
14400	201	M201:RAW_IMU.ymag	-88
14400	201	M201:RAW_IMU.zmag	310
14500	201	M201:RAW_IMU.xacc	-128
14500	201	M201:RAW_IMU.yacc	64
14500	201	M201:RAW_IMU.zacc	-3953
14500	201	M201:RAW_IMU.xmag	76
14500	201	M201:RAW_IMU.ymag	-83
14500	201	M201:RAW_IMU.zmag	304
14604	201	M201:RAW_IMU.xacc	-128
14604	201	M201:RAW_IMU.yacc	256
14604	201	M201:RAW_IMU.zacc	-4089
14604	201	M201:RAW_IMU.xmag	109
14604	201	M201:RAW_IMU.ymag	-68
14604	201	M201:RAW_IMU.zmag	290
14700	201	M201:RAW_IMU.xacc	-960
14700	201	M201:RAW_IMU.yacc	-64
14700	201	M201:RAW_IMU.zacc	-4088
14700	201	M201:RAW_IMU.xmag	159
14700	201	M201:RAW_IMU.ymag	-49
14700	201	M201:RAW_IMU.zmag	261
14804	201	M201:RAW_IMU.xacc	-1344
14804	201	M201:RAW_IMU.yacc	-128
14804	201	M201:RAW_IMU.zacc	-3814
14804	201	M201:RAW_IMU.xmag	182
14804	201	M201:RAW_IMU.ymag	-41
14804	201	M201:RAW_IMU.zmag	241
14900	201	M201:RAW_IMU.xacc	-1792
14900	201	M201:RAW_IMU.yacc	-384
14900	201	M201:RAW_IMU.zacc	-3820
14900	201	M201:RAW_IMU.xmag	212
14900	201	M201:RAW_IMU.ymag	-27
14900	201	M201:RAW_IMU.zmag	214
15000	201	M201:RAW_IMU.xacc	-2048
15000	201	M201:RAW_IMU.yacc	-704
15000	201	M201:RAW_IMU.zacc	-3571
15000	201	M201:RAW_IMU.xmag	221
15000	201	M201:RAW_IMU.ymag	-23
15000	201	M201:RAW_IMU.zmag	203
15104	201	M201:RAW_IMU.xacc	-1600
15104	201	M201:RAW_IMU.yacc	-448
15104	201	M201:RAW_IMU.zacc	-3571
15104	201	M201:RAW_IMU.xmag	218
15104	201	M201:RAW_IMU.ymag	-19
15104	201	M201:RAW_IMU.zmag	216
15200	201	M201:RAW_IMU.xacc	-1984
15200	201	M201:RAW_IMU.yacc	-576
15200	201	M201:RAW_IMU.zacc	-3333
15200	201	M201:RAW_IMU.xmag	239
15200	201	M201:RAW_IMU.ymag	-6
15200	201	M201:RAW_IMU.zmag	183
15304	201	M201:RAW_IMU.xacc	-2368
15304	201	M201:RAW_IMU.yacc	-576
15304	201	M201:RAW_IMU.zacc	-3099
15304	201	M201:RAW_IMU.xmag	287
15304	201	M201:RAW_IMU.ymag	8
15304	201	M201:RAW_IMU.zmag	117
15400	201	M201:RAW_IMU.xacc	-2816
15400	201	M201:RAW_IMU.yacc	-768
15400	201	M201:RAW_IMU.zacc	-3047
15400	201	M201:RAW_IMU.xmag	299
15400	201	M201:RAW_IMU.ymag	12
15400	201	M201:RAW_IMU.zmag	89
15500	201	M201:RAW_IMU.xacc	-3008
15500	201	M201:RAW_IMU.yacc	-768
15500	201	M201:RAW_IMU.zacc	-2800
15500	201	M201:RAW_IMU.xmag	309
15500	201	M201:RAW_IMU.ymag	18
15500	201	M201:RAW_IMU.zmag	61
15604	201	M201:RAW_IMU.xacc	-2880
15604	201	M201:RAW_IMU.yacc	-832
15604	201	M201:RAW_IMU.zacc	-2329
15604	201	M201:RAW_IMU.xmag	314
15604	201	M201:RAW_IMU.ymag	27
15604	201	M201:RAW_IMU.zmag	44
15700	201	M201:RAW_IMU.xacc	-3328
15700	201	M201:RAW_IMU.yacc	-1024
15700	201	M201:RAW_IMU.zacc	-2295
15700	201	M201:RAW_IMU.xmag	328
15700	201	M201:RAW_IMU.ymag	27
15700	201	M201:RAW_IMU.zmag	-17
15804	201	M201:RAW_IMU.xacc	-3456
15804	201	M201:RAW_IMU.yacc	-1024
15804	201	M201:RAW_IMU.zacc	-1807
15804	201	M201:RAW_IMU.xmag	331
15804	201	M201:RAW_IMU.ymag	29
15804	201	M201:RAW_IMU.zmag	-39
15900	201	M201:RAW_IMU.xacc	-3456
15900	201	M201:RAW_IMU.yacc	-1216
15900	201	M201:RAW_IMU.zacc	-1512
15900	201	M201:RAW_IMU.xmag	334
15900	201	M201:RAW_IMU.ymag	31
15900	201	M201:RAW_IMU.zmag	-56
16000	201	M201:RAW_IMU.xacc	-3648
16000	201	M201:RAW_IMU.yacc	-1216
16000	201	M201:RAW_IMU.zacc	-1234
16000	201	M201:RAW_IMU.xmag	333
16000	201	M201:RAW_IMU.ymag	33
16000	201	M201:RAW_IMU.zmag	-75
16104	201	M201:RAW_IMU.xacc	-4032
16104	201	M201:RAW_IMU.yacc	-1280
16104	201	M201:RAW_IMU.zacc	-753
16104	201	M201:RAW_IMU.xmag	330
16104	201	M201:RAW_IMU.ymag	34
16104	201	M201:RAW_IMU.zmag	-162
16200	201	M201:RAW_IMU.xacc	-3776
16200	201	M201:RAW_IMU.yacc	-1344
16200	201	M201:RAW_IMU.zacc	-291
16200	201	M201:RAW_IMU.xmag	324
16200	201	M201:RAW_IMU.ymag	44
16200	201	M201:RAW_IMU.zmag	-183
16304	201	M201:RAW_IMU.xacc	-4096
16304	201	M201:RAW_IMU.yacc	-1408
16304	201	M201:RAW_IMU.zacc	216
16304	201	M201:RAW_IMU.xmag	305
16304	201	M201:RAW_IMU.ymag	28
16304	201	M201:RAW_IMU.zmag	-231
16400	201	M201:RAW_IMU.xacc	-3776
16400	201	M201:RAW_IMU.yacc	-1280
16400	201	M201:RAW_IMU.zacc	281
16400	201	M201:RAW_IMU.xmag	296
16400	201	M201:RAW_IMU.ymag	23
16400	201	M201:RAW_IMU.zmag	-257
16500	201	M201:RAW_IMU.xacc	-3840
16500	201	M201:RAW_IMU.yacc	-1408
16500	201	M201:RAW_IMU.zacc	1049
16500	201	M201:RAW_IMU.xmag	247
16500	201	M201:RAW_IMU.ymag	3
16500	201	M201:RAW_IMU.zmag	-343
16604	201	M201:RAW_IMU.xacc	-3456
16604	201	M201:RAW_IMU.yacc	-1344
16604	201	M201:RAW_IMU.zacc	2019
16604	201	M201:RAW_IMU.xmag	223
16604	201	M201:RAW_IMU.ymag	-3
16604	201	M201:RAW_IMU.zmag	-366
16700	201	M201:RAW_IMU.xacc	-3136
16700	201	M201:RAW_IMU.yacc	-1088
16700	201	M201:RAW_IMU.zacc	2281
16700	201	M201:RAW_IMU.xmag	169
16700	201	M201:RAW_IMU.ymag	-29
16700	201	M201:RAW_IMU.zmag	-419
16804	201	M201:RAW_IMU.xacc	-3008
16804	201	M201:RAW_IMU.yacc	-1088
16804	201	M201:RAW_IMU.zacc	2564
16804	201	M201:RAW_IMU.xmag	137
16804	201	M201:RAW_IMU.ymag	-39
16804	201	M201:RAW_IMU.zmag	-439
16900	201	M201:RAW_IMU.xacc	-2624
16900	201	M201:RAW_IMU.yacc	-832
16900	201	M201:RAW_IMU.zacc	3328
16900	201	M201:RAW_IMU.xmag	71
16900	201	M201:RAW_IMU.ymag	-65
16900	201	M201:RAW_IMU.zmag	-471
17000	201	M201:RAW_IMU.xacc	-2176
17000	201	M201:RAW_IMU.yacc	-896
17000	201	M201:RAW_IMU.zacc	3839
17000	201	M201:RAW_IMU.xmag	23
17000	201	M201:RAW_IMU.ymag	-84
17000	201	M201:RAW_IMU.zmag	-484
17104	201	M201:RAW_IMU.xacc	-1536
17104	201	M201:RAW_IMU.yacc	-512
17104	201	M201:RAW_IMU.zacc	4093
17104	201	M201:RAW_IMU.xmag	-87
17104	201	M201:RAW_IMU.ymag	-128
17104	201	M201:RAW_IMU.zmag	-492
17200	201	M201:RAW_IMU.xacc	-1024
17200	201	M201:RAW_IMU.yacc	-320
17200	201	M201:RAW_IMU.zacc	4097
17200	201	M201:RAW_IMU.xmag	-149
17200	201	M201:RAW_IMU.ymag	-140
17200	201	M201:RAW_IMU.zmag	-485
17304	201	M201:RAW_IMU.xacc	192
17304	201	M201:RAW_IMU.yacc	256
17304	201	M201:RAW_IMU.zacc	4108
17304	201	M201:RAW_IMU.xmag	-270
17304	201	M201:RAW_IMU.ymag	-201
17304	201	M201:RAW_IMU.zmag	-431
17400	201	M201:RAW_IMU.xacc	960
17400	201	M201:RAW_IMU.yacc	384
17400	201	M201:RAW_IMU.zacc	4111
17400	201	M201:RAW_IMU.xmag	-309
17400	201	M201:RAW_IMU.ymag	-216
17400	201	M201:RAW_IMU.zmag	-411
17500	201	M201:RAW_IMU.xacc	1344
17500	201	M201:RAW_IMU.yacc	448
17500	201	M201:RAW_IMU.zacc	3859
17500	201	M201:RAW_IMU.xmag	-359
17500	201	M201:RAW_IMU.ymag	-238
17500	201	M201:RAW_IMU.zmag	-365
17604	201	M201:RAW_IMU.xacc	1856
17604	201	M201:RAW_IMU.yacc	576
17604	201	M201:RAW_IMU.zacc	3598
17604	201	M201:RAW_IMU.xmag	-420
17604	201	M201:RAW_IMU.ymag	-260
17604	201	M201:RAW_IMU.zmag	-283
17700	201	M201:RAW_IMU.xacc	2368
17700	201	M201:RAW_IMU.yacc	896
17700	201	M201:RAW_IMU.zacc	3125
17700	201	M201:RAW_IMU.xmag	-438
17700	201	M201:RAW_IMU.ymag	-270
17700	201	M201:RAW_IMU.zmag	-245
17804	201	M201:RAW_IMU.xacc	3008
17804	201	M201:RAW_IMU.yacc	1088
17804	201	M201:RAW_IMU.zacc	2834
17804	201	M201:RAW_IMU.xmag	-468
17804	201	M201:RAW_IMU.ymag	-267
17804	201	M201:RAW_IMU.zmag	-164
17900	201	M201:RAW_IMU.xacc	3264
17900	201	M201:RAW_IMU.yacc	1280
17900	201	M201:RAW_IMU.zacc	2058
17900	201	M201:RAW_IMU.xmag	-470
17900	201	M201:RAW_IMU.ymag	-279
17900	201	M201:RAW_IMU.zmag	-131
18000	201	M201:RAW_IMU.xacc	3328
18000	201	M201:RAW_IMU.yacc	1088
18000	201	M201:RAW_IMU.zacc	1808
18000	201	M201:RAW_IMU.xmag	-475
18000	201	M201:RAW_IMU.ymag	-282
18000	201	M201:RAW_IMU.zmag	-64
18104	201	M201:RAW_IMU.xacc	3328
18104	201	M201:RAW_IMU.yacc	1280
18104	201	M201:RAW_IMU.zacc	1037
18104	201	M201:RAW_IMU.xmag	-471
18104	201	M201:RAW_IMU.ymag	-281
18104	201	M201:RAW_IMU.zmag	-16
18200	201	M201:RAW_IMU.xacc	3712
18200	201	M201:RAW_IMU.yacc	1408
18200	201	M201:RAW_IMU.zacc	800
18200	201	M201:RAW_IMU.xmag	-471
18200	201	M201:RAW_IMU.ymag	-281
18200	201	M201:RAW_IMU.zmag	8
18304	201	M201:RAW_IMU.xacc	3584
18304	201	M201:RAW_IMU.yacc	1280
18304	201	M201:RAW_IMU.zacc	528
18304	201	M201:RAW_IMU.xmag	-465
18304	201	M201:RAW_IMU.ymag	-277
18304	201	M201:RAW_IMU.zmag	28
18400	201	M201:RAW_IMU.xacc	3776
18400	201	M201:RAW_IMU.yacc	1472
18400	201	M201:RAW_IMU.zacc	13
18400	201	M201:RAW_IMU.xmag	-444
18400	201	M201:RAW_IMU.ymag	-276
18400	201	M201:RAW_IMU.zmag	81
18500	201	M201:RAW_IMU.xacc	3712
18500	201	M201:RAW_IMU.yacc	1408
18500	201	M201:RAW_IMU.zacc	-26
18500	201	M201:RAW_IMU.xmag	-438
18500	201	M201:RAW_IMU.ymag	-270
18500	201	M201:RAW_IMU.zmag	110
18604	201	M201:RAW_IMU.xacc	3328
18604	201	M201:RAW_IMU.yacc	1472
18604	201	M201:RAW_IMU.zacc	-755
18604	201	M201:RAW_IMU.xmag	-396
18604	201	M201:RAW_IMU.ymag	-251
18604	201	M201:RAW_IMU.zmag	174
18700	201	M201:RAW_IMU.xacc	3392
18700	201	M201:RAW_IMU.yacc	1088
18700	201	M201:RAW_IMU.zacc	-1246
18700	201	M201:RAW_IMU.xmag	-376
18700	201	M201:RAW_IMU.ymag	-252
18700	201	M201:RAW_IMU.zmag	196
18804	201	M201:RAW_IMU.xacc	3072
18804	201	M201:RAW_IMU.yacc	1280
18804	201	M201:RAW_IMU.zacc	-1787
18804	201	M201:RAW_IMU.xmag	-333
18804	201	M201:RAW_IMU.ymag	-235
18804	201	M201:RAW_IMU.zmag	240
18900	201	M201:RAW_IMU.xacc	3072
18900	201	M201:RAW_IMU.yacc	1280
18900	201	M201:RAW_IMU.zacc	-2292
18900	201	M201:RAW_IMU.xmag	-309
18900	201	M201:RAW_IMU.ymag	-224
18900	201	M201:RAW_IMU.zmag	259
19000	201	M201:RAW_IMU.xacc	2752
19000	201	M201:RAW_IMU.yacc	1152
19000	201	M201:RAW_IMU.zacc	-2559
19000	201	M201:RAW_IMU.xmag	-259
19000	201	M201:RAW_IMU.ymag	-208
19000	201	M201:RAW_IMU.zmag	292
19200	201	M201:RAW_IMU.xacc	2176
19200	201	M201:RAW_IMU.yacc	1024
19200	201	M201:RAW_IMU.zacc	-3311
19200	201	M201:RAW_IMU.xmag	-176
19200	201	M201:RAW_IMU.ymag	-176
19200	201	M201:RAW_IMU.zmag	320
19304	201	M201:RAW_IMU.xacc	1664
19304	201	M201:RAW_IMU.yacc	960
19304	201	M201:RAW_IMU.zacc	-3574
19304	201	M201:RAW_IMU.xmag	-146
19304	201	M201:RAW_IMU.ymag	-164
19304	201	M201:RAW_IMU.zmag	327
19400	201	M201:RAW_IMU.xacc	1344
19400	201	M201:RAW_IMU.yacc	704
19400	201	M201:RAW_IMU.zacc	-3831
19400	201	M201:RAW_IMU.xmag	-86
19400	201	M201:RAW_IMU.ymag	-139
19400	201	M201:RAW_IMU.zmag	334
19500	201	M201:RAW_IMU.xacc	1024
19500	201	M201:RAW_IMU.yacc	512
19500	201	M201:RAW_IMU.zacc	-4068
19500	201	M201:RAW_IMU.xmag	-62
19500	201	M201:RAW_IMU.ymag	-129
19500	201	M201:RAW_IMU.zmag	331
19604	201	M201:RAW_IMU.xacc	832
19604	201	M201:RAW_IMU.yacc	512
19604	201	M201:RAW_IMU.zacc	-4088
19604	201	M201:RAW_IMU.xmag	-17
19604	201	M201:RAW_IMU.ymag	-112
19604	201	M201:RAW_IMU.zmag	327
19700	201	M201:RAW_IMU.xacc	448
19700	201	M201:RAW_IMU.yacc	448
19700	201	M201:RAW_IMU.zacc	-3850
19700	201	M201:RAW_IMU.xmag	12
19700	201	M201:RAW_IMU.ymag	-100
19700	201	M201:RAW_IMU.zmag	330
19804	201	M201:RAW_IMU.xacc	0
19804	201	M201:RAW_IMU.yacc	192
19804	201	M201:RAW_IMU.zacc	-4062
19804	201	M201:RAW_IMU.xmag	25
19804	201	M201:RAW_IMU.ymag	-80
19804	201	M201:RAW_IMU.zmag	316
19900	201	M201:RAW_IMU.xacc	192
19900	201	M201:RAW_IMU.yacc	384
19900	201	M201:RAW_IMU.zacc	-4091
19900	201	M201:RAW_IMU.xmag	33
19900	201	M201:RAW_IMU.ymag	-85
19900	201	M201:RAW_IMU.zmag	316
20000	201	M201:RAW_IMU.xacc	128
20000	201	M201:RAW_IMU.yacc	64
20000	201	M201:RAW_IMU.zacc	-3999
20000	201	M201:RAW_IMU.xmag	31
20000	201	M201:RAW_IMU.ymag	-79
20000	201	M201:RAW_IMU.zmag	311
20104	201	M201:RAW_IMU.xacc	-64
20104	201	M201:RAW_IMU.yacc	64
20104	201	M201:RAW_IMU.zacc	-3978
20104	201	M201:RAW_IMU.xmag	31
20104	201	M201:RAW_IMU.ymag	-73
20104	201	M201:RAW_IMU.zmag	310
20200	201	M201:RAW_IMU.xacc	-64
20200	201	M201:RAW_IMU.yacc	128
20200	201	M201:RAW_IMU.zacc	-3953
20200	201	M201:RAW_IMU.xmag	20
20200	201	M201:RAW_IMU.ymag	-69
20200	201	M201:RAW_IMU.zmag	307
20304	201	M201:RAW_IMU.xacc	-128
20304	201	M201:RAW_IMU.yacc	128
20304	201	M201:RAW_IMU.zacc	-3898
20304	201	M201:RAW_IMU.xmag	18
20304	201	M201:RAW_IMU.ymag	-71
20304	201	M201:RAW_IMU.zmag	308
20400	201	M201:RAW_IMU.xacc	-128
20400	201	M201:RAW_IMU.yacc	128
20400	201	M201:RAW_IMU.zacc	-4054
20400	201	M201:RAW_IMU.xmag	13
20400	201	M201:RAW_IMU.ymag	-71
20400	201	M201:RAW_IMU.zmag	306
20500	201	M201:RAW_IMU.xacc	128
20500	201	M201:RAW_IMU.yacc	384
20500	201	M201:RAW_IMU.zacc	-3841
20500	201	M201:RAW_IMU.xmag	27
20500	201	M201:RAW_IMU.ymag	-58
20500	201	M201:RAW_IMU.zmag	303
20604	201	M201:RAW_IMU.xacc	-448
20604	201	M201:RAW_IMU.yacc	-64
20604	201	M201:RAW_IMU.zacc	-4082
20604	201	M201:RAW_IMU.xmag	88
20604	201	M201:RAW_IMU.ymag	-20
20604	201	M201:RAW_IMU.zmag	269
20700	201	M201:RAW_IMU.xacc	-896
20700	201	M201:RAW_IMU.yacc	-320
20700	201	M201:RAW_IMU.zacc	-4085
20700	201	M201:RAW_IMU.xmag	108
20700	201	M201:RAW_IMU.ymag	-6
20700	201	M201:RAW_IMU.zmag	251
20804	201	M201:RAW_IMU.xacc	-1088
20804	201	M201:RAW_IMU.yacc	-640
20804	201	M201:RAW_IMU.zacc	-3585
20804	201	M201:RAW_IMU.xmag	138
20804	201	M201:RAW_IMU.ymag	20
20804	201	M201:RAW_IMU.zmag	223
20900	201	M201:RAW_IMU.xacc	-1472
20900	201	M201:RAW_IMU.yacc	-832
20900	201	M201:RAW_IMU.zacc	-3831
20900	201	M201:RAW_IMU.xmag	144
20900	201	M201:RAW_IMU.ymag	27
20900	201	M201:RAW_IMU.zmag	212
21000	201	M201:RAW_IMU.xacc	-1600
21000	201	M201:RAW_IMU.yacc	-896
21000	201	M201:RAW_IMU.zacc	-3564
21000	201	M201:RAW_IMU.xmag	159
21000	201	M201:RAW_IMU.ymag	38
21000	201	M201:RAW_IMU.zmag	193
21104	201	M201:RAW_IMU.xacc	-2048
21104	201	M201:RAW_IMU.yacc	-1088
21104	201	M201:RAW_IMU.zacc	-3529
21104	201	M201:RAW_IMU.xmag	176
21104	201	M201:RAW_IMU.ymag	48
21104	201	M201:RAW_IMU.zmag	172
21200	201	M201:RAW_IMU.xacc	-2112
21200	201	M201:RAW_IMU.yacc	-1088
21200	201	M201:RAW_IMU.zacc	-3311
21200	201	M201:RAW_IMU.xmag	188
21200	201	M201:RAW_IMU.ymag	64
21200	201	M201:RAW_IMU.zmag	158
21304	201	M201:RAW_IMU.xacc	-2240
21304	201	M201:RAW_IMU.yacc	-1344
21304	201	M201:RAW_IMU.zacc	-3075
21304	201	M201:RAW_IMU.xmag	193
21304	201	M201:RAW_IMU.ymag	61
21304	201	M201:RAW_IMU.zmag	150
21400	201	M201:RAW_IMU.xacc	-1856
21400	201	M201:RAW_IMU.yacc	-1088
21400	201	M201:RAW_IMU.zacc	-3317
21400	201	M201:RAW_IMU.xmag	205
21400	201	M201:RAW_IMU.ymag	72
21400	201	M201:RAW_IMU.zmag	126
21500	201	M201:RAW_IMU.xacc	-2112
21500	201	M201:RAW_IMU.yacc	-1408
21500	201	M201:RAW_IMU.zacc	-2817
21500	201	M201:RAW_IMU.xmag	214
21500	201	M201:RAW_IMU.ymag	79
21500	201	M201:RAW_IMU.zmag	103
21604	201	M201:RAW_IMU.xacc	-2560
21604	201	M201:RAW_IMU.yacc	-1664
21604	201	M201:RAW_IMU.zacc	-2814
21604	201	M201:RAW_IMU.xmag	229
21604	201	M201:RAW_IMU.ymag	93
21604	201	M201:RAW_IMU.zmag	67
21700	201	M201:RAW_IMU.xacc	-2624
21700	201	M201:RAW_IMU.yacc	-1728
21700	201	M201:RAW_IMU.zacc	-2302
21700	201	M201:RAW_IMU.xmag	238
21700	201	M201:RAW_IMU.ymag	97
21700	201	M201:RAW_IMU.zmag	31
21804	201	M201:RAW_IMU.xacc	-3328
21804	201	M201:RAW_IMU.yacc	-2112
21804	201	M201:RAW_IMU.zacc	-1790
21804	201	M201:RAW_IMU.xmag	254
21804	201	M201:RAW_IMU.ymag	122
21804	201	M201:RAW_IMU.zmag	-80
21900	201	M201:RAW_IMU.xacc	-3264
21900	201	M201:RAW_IMU.yacc	-2240
21900	201	M201:RAW_IMU.zacc	-1237
21900	201	M201:RAW_IMU.xmag	253
21900	201	M201:RAW_IMU.ymag	108
21900	201	M201:RAW_IMU.zmag	-94
22000	201	M201:RAW_IMU.xacc	-3392
22000	201	M201:RAW_IMU.yacc	-2048
22000	201	M201:RAW_IMU.zacc	-987
22000	201	M201:RAW_IMU.xmag	250
22000	201	M201:RAW_IMU.ymag	108
22000	201	M201:RAW_IMU.zmag	-158
22104	201	M201:RAW_IMU.xacc	-3392
22104	201	M201:RAW_IMU.yacc	-2112
22104	201	M201:RAW_IMU.zacc	-483
22104	201	M201:RAW_IMU.xmag	238
22104	201	M201:RAW_IMU.ymag	101
22104	201	M201:RAW_IMU.zmag	-220
22200	201	M201:RAW_IMU.xacc	-3392
22200	201	M201:RAW_IMU.yacc	-2240
22200	201	M201:RAW_IMU.zacc	235
22200	201	M201:RAW_IMU.xmag	226
22200	201	M201:RAW_IMU.ymag	104
22200	201	M201:RAW_IMU.zmag	-246
22304	201	M201:RAW_IMU.xacc	-3328
22304	201	M201:RAW_IMU.yacc	-2496
22304	201	M201:RAW_IMU.zacc	545
22304	201	M201:RAW_IMU.xmag	211
22304	201	M201:RAW_IMU.ymag	84
22304	201	M201:RAW_IMU.zmag	-288
22400	201	M201:RAW_IMU.xacc	-3456
22400	201	M201:RAW_IMU.yacc	-2240
22400	201	M201:RAW_IMU.zacc	1045
22400	201	M201:RAW_IMU.xmag	190
22400	201	M201:RAW_IMU.ymag	69
22400	201	M201:RAW_IMU.zmag	-326
22500	201	M201:RAW_IMU.xacc	-3264
22500	201	M201:RAW_IMU.yacc	-2112
22500	201	M201:RAW_IMU.zacc	1574
22500	201	M201:RAW_IMU.xmag	153
22500	201	M201:RAW_IMU.ymag	41
22500	201	M201:RAW_IMU.zmag	-376
22604	201	M201:RAW_IMU.xacc	-3008
22604	201	M201:RAW_IMU.yacc	-2112
22604	201	M201:RAW_IMU.zacc	1835
22604	201	M201:RAW_IMU.xmag	145
22604	201	M201:RAW_IMU.ymag	37
22604	201	M201:RAW_IMU.zmag	-389
22700	201	M201:RAW_IMU.xacc	-2944
22700	201	M201:RAW_IMU.yacc	-1792
22700	201	M201:RAW_IMU.zacc	2302
22700	201	M201:RAW_IMU.xmag	105
22700	201	M201:RAW_IMU.ymag	7
22700	201	M201:RAW_IMU.zmag	-427
22804	201	M201:RAW_IMU.xacc	-2816
22804	201	M201:RAW_IMU.yacc	-1984
22804	201	M201:RAW_IMU.zacc	2817
22804	201	M201:RAW_IMU.xmag	46
22804	201	M201:RAW_IMU.ymag	-35
22804	201	M201:RAW_IMU.zmag	-461
22900	201	M201:RAW_IMU.xacc	-1792
22900	201	M201:RAW_IMU.yacc	-1280
22900	201	M201:RAW_IMU.zacc	3602
22900	201	M201:RAW_IMU.xmag	-96
22900	201	M201:RAW_IMU.ymag	-135
22900	201	M201:RAW_IMU.zmag	-497
23000	201	M201:RAW_IMU.xacc	-1088
23000	201	M201:RAW_IMU.yacc	-640
23000	201	M201:RAW_IMU.zacc	4111
23000	201	M201:RAW_IMU.xmag	-137
23000	201	M201:RAW_IMU.ymag	-165
23000	201	M201:RAW_IMU.zmag	-489
23104	201	M201:RAW_IMU.xacc	-448
23104	201	M201:RAW_IMU.yacc	-256
23104	201	M201:RAW_IMU.zacc	4114
23104	201	M201:RAW_IMU.xmag	-212
23104	201	M201:RAW_IMU.ymag	-217
23104	201	M201:RAW_IMU.zmag	-471
23200	201	M201:RAW_IMU.xacc	192
23200	201	M201:RAW_IMU.yacc	192
23200	201	M201:RAW_IMU.zacc	4121
23200	201	M201:RAW_IMU.xmag	-247
23200	201	M201:RAW_IMU.ymag	-241
23200	201	M201:RAW_IMU.zmag	-453
23304	201	M201:RAW_IMU.xacc	704
23304	201	M201:RAW_IMU.yacc	448
23304	201	M201:RAW_IMU.zacc	4118
23304	201	M201:RAW_IMU.xmag	-291
23304	201	M201:RAW_IMU.ymag	-267
23304	201	M201:RAW_IMU.zmag	-425
23400	201	M201:RAW_IMU.xacc	512
23400	201	M201:RAW_IMU.yacc	320
23400	201	M201:RAW_IMU.zacc	4121
23400	201	M201:RAW_IMU.xmag	-312
23400	201	M201:RAW_IMU.ymag	-290
23400	201	M201:RAW_IMU.zmag	-409
23500	201	M201:RAW_IMU.xacc	1024
23500	201	M201:RAW_IMU.yacc	768
23500	201	M201:RAW_IMU.zacc	3855
23500	201	M201:RAW_IMU.xmag	-362
23500	201	M201:RAW_IMU.ymag	-324
23500	201	M201:RAW_IMU.zmag	-356
23604	201	M201:RAW_IMU.xacc	1728
23604	201	M201:RAW_IMU.yacc	1216
23604	201	M201:RAW_IMU.zacc	3593
23604	201	M201:RAW_IMU.xmag	-392
23604	201	M201:RAW_IMU.ymag	-342
23604	201	M201:RAW_IMU.zmag	-323
23700	201	M201:RAW_IMU.xacc	2176
23700	201	M201:RAW_IMU.yacc	1408
23700	201	M201:RAW_IMU.zacc	3353
23700	201	M201:RAW_IMU.xmag	-431
23700	201	M201:RAW_IMU.ymag	-373
23700	201	M201:RAW_IMU.zmag	-244
23804	201	M201:RAW_IMU.xacc	2368
23804	201	M201:RAW_IMU.yacc	1600
23804	201	M201:RAW_IMU.zacc	2827
23804	201	M201:RAW_IMU.xmag	-443
23804	201	M201:RAW_IMU.ymag	-380
23804	201	M201:RAW_IMU.zmag	-199
23900	201	M201:RAW_IMU.xacc	2752
23900	201	M201:RAW_IMU.yacc	1920
23900	201	M201:RAW_IMU.zacc	2318
23900	201	M201:RAW_IMU.xmag	-458
23900	201	M201:RAW_IMU.ymag	-392
23900	201	M201:RAW_IMU.zmag	-118
24000	201	M201:RAW_IMU.xacc	3264
24000	201	M201:RAW_IMU.yacc	2240
24000	201	M201:RAW_IMU.zacc	1553
24000	201	M201:RAW_IMU.xmag	-464
24000	201	M201:RAW_IMU.ymag	-394
24000	201	M201:RAW_IMU.zmag	-53
24104	201	M201:RAW_IMU.xacc	3136
24104	201	M201:RAW_IMU.yacc	2240
24104	201	M201:RAW_IMU.zacc	774
24104	201	M201:RAW_IMU.xmag	-449
24104	201	M201:RAW_IMU.ymag	-387
24104	201	M201:RAW_IMU.zmag	43
24200	201	M201:RAW_IMU.xacc	3200
24200	201	M201:RAW_IMU.yacc	2496
24200	201	M201:RAW_IMU.zacc	14
24200	201	M201:RAW_IMU.xmag	-436
24200	201	M201:RAW_IMU.ymag	-374
24200	201	M201:RAW_IMU.zmag	100
24304	201	M201:RAW_IMU.xacc	3072
24304	201	M201:RAW_IMU.yacc	2176
24304	201	M201:RAW_IMU.zacc	-753
24304	201	M201:RAW_IMU.xmag	-395
24304	201	M201:RAW_IMU.ymag	-348
24304	201	M201:RAW_IMU.zmag	178
24400	201	M201:RAW_IMU.xacc	2944
24400	201	M201:RAW_IMU.yacc	2240
24400	201	M201:RAW_IMU.zacc	-1516
24400	201	M201:RAW_IMU.xmag	-372
24400	201	M201:RAW_IMU.ymag	-331
24400	201	M201:RAW_IMU.zmag	208
24500	201	M201:RAW_IMU.xacc	2560
24500	201	M201:RAW_IMU.yacc	1984
24500	201	M201:RAW_IMU.zacc	-2041
24500	201	M201:RAW_IMU.xmag	-312
24500	201	M201:RAW_IMU.ymag	-294
24500	201	M201:RAW_IMU.zmag	265
24604	201	M201:RAW_IMU.xacc	2304
24604	201	M201:RAW_IMU.yacc	1792
24604	201	M201:RAW_IMU.zacc	-2813
24604	201	M201:RAW_IMU.xmag	-277
24604	201	M201:RAW_IMU.ymag	-267
24604	201	M201:RAW_IMU.zmag	286
24700	201	M201:RAW_IMU.xacc	2176
24700	201	M201:RAW_IMU.yacc	1664
24700	201	M201:RAW_IMU.zacc	-3064
24700	201	M201:RAW_IMU.xmag	-210
24700	201	M201:RAW_IMU.ymag	-223
24700	201	M201:RAW_IMU.zmag	320
24804	201	M201:RAW_IMU.xacc	1728
24804	201	M201:RAW_IMU.yacc	1536
24804	201	M201:RAW_IMU.zacc	-3559
24804	201	M201:RAW_IMU.xmag	-193
24804	201	M201:RAW_IMU.ymag	-208
24804	201	M201:RAW_IMU.zmag	325
24900	201	M201:RAW_IMU.xacc	1536
24900	201	M201:RAW_IMU.yacc	1216
24900	201	M201:RAW_IMU.zacc	-3571
24900	201	M201:RAW_IMU.xmag	-168
24900	201	M201:RAW_IMU.ymag	-196
24900	201	M201:RAW_IMU.zmag	328
25000	201	M201:RAW_IMU.xacc	1344
25000	201	M201:RAW_IMU.yacc	1088
25000	201	M201:RAW_IMU.zacc	-3572
25000	201	M201:RAW_IMU.xmag	-145
25000	201	M201:RAW_IMU.ymag	-180
25000	201	M201:RAW_IMU.zmag	332
25104	201	M201:RAW_IMU.xacc	1216
25104	201	M201:RAW_IMU.yacc	960
25104	201	M201:RAW_IMU.zacc	-3813
25104	201	M201:RAW_IMU.xmag	-101
25104	201	M201:RAW_IMU.ymag	-145
25104	201	M201:RAW_IMU.zmag	334
25200	201	M201:RAW_IMU.xacc	768
25200	201	M201:RAW_IMU.yacc	576
25200	201	M201:RAW_IMU.zacc	-3820
25200	201	M201:RAW_IMU.xmag	-92
25200	201	M201:RAW_IMU.ymag	-140
25200	201	M201:RAW_IMU.zmag	341
25304	201	M201:RAW_IMU.xacc	512
25304	201	M201:RAW_IMU.yacc	768
25304	201	M201:RAW_IMU.zacc	-3890
25304	201	M201:RAW_IMU.xmag	-78
25304	201	M201:RAW_IMU.ymag	-122
25304	201	M201:RAW_IMU.zmag	332
25400	201	M201:RAW_IMU.xacc	832
25400	201	M201:RAW_IMU.yacc	896
25400	201	M201:RAW_IMU.zacc	-3950
25400	201	M201:RAW_IMU.xmag	-75
25400	201	M201:RAW_IMU.ymag	-128
25400	201	M201:RAW_IMU.zmag	325
25500	201	M201:RAW_IMU.xacc	512
25500	201	M201:RAW_IMU.yacc	704
25500	201	M201:RAW_IMU.zacc	-3920
25500	201	M201:RAW_IMU.xmag	-80
25500	201	M201:RAW_IMU.ymag	-127
25500	201	M201:RAW_IMU.zmag	326
25604	201	M201:RAW_IMU.xacc	576
25604	201	M201:RAW_IMU.yacc	640
25604	201	M201:RAW_IMU.zacc	-4015
25604	201	M201:RAW_IMU.xmag	-78
25604	201	M201:RAW_IMU.ymag	-113
25604	201	M201:RAW_IMU.zmag	331
25700	201	M201:RAW_IMU.xacc	192
25700	201	M201:RAW_IMU.yacc	640
25700	201	M201:RAW_IMU.zacc	-3984
25700	201	M201:RAW_IMU.xmag	-34
25700	201	M201:RAW_IMU.ymag	-80
25700	201	M201:RAW_IMU.zmag	312
25804	201	M201:RAW_IMU.xacc	-64
25804	201	M201:RAW_IMU.yacc	192
25804	201	M201:RAW_IMU.zacc	-3853
25804	201	M201:RAW_IMU.xmag	-23
25804	201	M201:RAW_IMU.ymag	-68
25804	201	M201:RAW_IMU.zmag	308
25900	201	M201:RAW_IMU.xacc	-128
25900	201	M201:RAW_IMU.yacc	128
25900	201	M201:RAW_IMU.zacc	-3908
25900	201	M201:RAW_IMU.xmag	-28
25900	201	M201:RAW_IMU.ymag	-63
25900	201	M201:RAW_IMU.zmag	307
26000	201	M201:RAW_IMU.xacc	-128
26000	201	M201:RAW_IMU.yacc	128
26000	201	M201:RAW_IMU.zacc	-4068
26000	201	M201:RAW_IMU.xmag	-21
26000	201	M201:RAW_IMU.ymag	-57
26000	201	M201:RAW_IMU.zmag	304
26104	201	M201:RAW_IMU.xacc	-448
26104	201	M201:RAW_IMU.yacc	-128
26104	201	M201:RAW_IMU.zacc	-4080
26104	201	M201:RAW_IMU.xmag	-3
26104	201	M201:RAW_IMU.ymag	-33
26104	201	M201:RAW_IMU.zmag	297
26200	201	M201:RAW_IMU.xacc	-640
26200	201	M201:RAW_IMU.yacc	-320
26200	201	M201:RAW_IMU.zacc	-4071
26200	201	M201:RAW_IMU.xmag	18
26200	201	M201:RAW_IMU.ymag	-10
26200	201	M201:RAW_IMU.zmag	277
26304	201	M201:RAW_IMU.xacc	-704
26304	201	M201:RAW_IMU.yacc	-512
26304	201	M201:RAW_IMU.zacc	-4072
26304	201	M201:RAW_IMU.xmag	46
26304	201	M201:RAW_IMU.ymag	16
26304	201	M201:RAW_IMU.zmag	252
26400	201	M201:RAW_IMU.xacc	-896
26400	201	M201:RAW_IMU.yacc	-832
26400	201	M201:RAW_IMU.zacc	-3818
26400	201	M201:RAW_IMU.xmag	66
26400	201	M201:RAW_IMU.ymag	36
26400	201	M201:RAW_IMU.zmag	233
26500	201	M201:RAW_IMU.xacc	-1408
26500	201	M201:RAW_IMU.yacc	-1344
26500	201	M201:RAW_IMU.zacc	-3328
26500	201	M201:RAW_IMU.xmag	119
26500	201	M201:RAW_IMU.ymag	94
26500	201	M201:RAW_IMU.zmag	152
26604	201	M201:RAW_IMU.xacc	-1920
26604	201	M201:RAW_IMU.yacc	-1856
26604	201	M201:RAW_IMU.zacc	-3057
26604	201	M201:RAW_IMU.xmag	154
26604	201	M201:RAW_IMU.ymag	132
26604	201	M201:RAW_IMU.zmag	74
26700	201	M201:RAW_IMU.xacc	-2176
26700	201	M201:RAW_IMU.yacc	-2112
26700	201	M201:RAW_IMU.zacc	-2585
26700	201	M201:RAW_IMU.xmag	156
26700	201	M201:RAW_IMU.ymag	135
26700	201	M201:RAW_IMU.zmag	59
26804	201	M201:RAW_IMU.xacc	-2240
26804	201	M201:RAW_IMU.yacc	-2432
26804	201	M201:RAW_IMU.zacc	-2286
26804	201	M201:RAW_IMU.xmag	172
26804	201	M201:RAW_IMU.ymag	166
26804	201	M201:RAW_IMU.zmag	-41
26900	201	M201:RAW_IMU.xacc	-2752
26900	201	M201:RAW_IMU.yacc	-2688
26900	201	M201:RAW_IMU.zacc	-1789
26900	201	M201:RAW_IMU.xmag	175
26900	201	M201:RAW_IMU.ymag	156
26900	201	M201:RAW_IMU.zmag	-61
27000	201	M201:RAW_IMU.xacc	-2752
27000	201	M201:RAW_IMU.yacc	-2752
27000	201	M201:RAW_IMU.zacc	-1295
27000	201	M201:RAW_IMU.xmag	173
27000	201	M201:RAW_IMU.ymag	156
27000	201	M201:RAW_IMU.zmag	-61
27104	201	M201:RAW_IMU.xacc	-3008
27104	201	M201:RAW_IMU.yacc	-2560
27104	201	M201:RAW_IMU.zacc	-1481
27104	201	M201:RAW_IMU.xmag	173
27104	201	M201:RAW_IMU.ymag	159
27104	201	M201:RAW_IMU.zmag	-92
27200	201	M201:RAW_IMU.xacc	-3072
27200	201	M201:RAW_IMU.yacc	-2880
27200	201	M201:RAW_IMU.zacc	-1015
27200	201	M201:RAW_IMU.xmag	170
27200	201	M201:RAW_IMU.ymag	152
27200	201	M201:RAW_IMU.zmag	-164
27304	201	M201:RAW_IMU.xacc	-2752
27304	201	M201:RAW_IMU.yacc	-3008
27304	201	M201:RAW_IMU.zacc	-455
27304	201	M201:RAW_IMU.xmag	169
27304	201	M201:RAW_IMU.ymag	157
27304	201	M201:RAW_IMU.zmag	-161
27400	201	M201:RAW_IMU.xacc	-2880
27400	201	M201:RAW_IMU.yacc	-3008
27400	201	M201:RAW_IMU.zacc	35
27400	201	M201:RAW_IMU.xmag	154
27400	201	M201:RAW_IMU.ymag	138
27400	201	M201:RAW_IMU.zmag	-236
27500	201	M201:RAW_IMU.xacc	-2880
27500	201	M201:RAW_IMU.yacc	-2880
27500	201	M201:RAW_IMU.zacc	298
27500	201	M201:RAW_IMU.xmag	147
27500	201	M201:RAW_IMU.ymag	131
27500	201	M201:RAW_IMU.zmag	-264
27604	201	M201:RAW_IMU.xacc	-2688
27604	201	M201:RAW_IMU.yacc	-2944
27604	201	M201:RAW_IMU.zacc	804
27604	201	M201:RAW_IMU.xmag	117
27604	201	M201:RAW_IMU.ymag	104
27604	201	M201:RAW_IMU.zmag	-331
27700	201	M201:RAW_IMU.xacc	-2816
27700	201	M201:RAW_IMU.yacc	-2816
27700	201	M201:RAW_IMU.zacc	1312
27700	201	M201:RAW_IMU.xmag	97
27700	201	M201:RAW_IMU.ymag	78
27700	201	M201:RAW_IMU.zmag	-364
27804	201	M201:RAW_IMU.xacc	-2560
27804	201	M201:RAW_IMU.yacc	-2752
27804	201	M201:RAW_IMU.zacc	2084
27804	201	M201:RAW_IMU.xmag	44
27804	201	M201:RAW_IMU.ymag	24
27804	201	M201:RAW_IMU.zmag	-420
27900	201	M201:RAW_IMU.xacc	-2304
27900	201	M201:RAW_IMU.yacc	-2304
27900	201	M201:RAW_IMU.zacc	2586
27900	201	M201:RAW_IMU.xmag	21
27900	201	M201:RAW_IMU.ymag	-4
27900	201	M201:RAW_IMU.zmag	-449
28000	201	M201:RAW_IMU.xacc	-2048
28000	201	M201:RAW_IMU.yacc	-2176
28000	201	M201:RAW_IMU.zacc	3101
28000	201	M201:RAW_IMU.xmag	-34
28000	201	M201:RAW_IMU.ymag	-59
28000	201	M201:RAW_IMU.zmag	-476
28104	201	M201:RAW_IMU.xacc	-1792
28104	201	M201:RAW_IMU.yacc	-1664
28104	201	M201:RAW_IMU.zacc	3597
28104	201	M201:RAW_IMU.xmag	-74
28104	201	M201:RAW_IMU.ymag	-96
28104	201	M201:RAW_IMU.zmag	-488
28200	201	M201:RAW_IMU.xacc	-1280
28200	201	M201:RAW_IMU.yacc	-1024
28200	201	M201:RAW_IMU.zacc	3870
28200	201	M201:RAW_IMU.xmag	-169
28200	201	M201:RAW_IMU.ymag	-206
28200	201	M201:RAW_IMU.zmag	-489
28304	201	M201:RAW_IMU.xacc	-384
28304	201	M201:RAW_IMU.yacc	-384
28304	201	M201:RAW_IMU.zacc	4116
28304	201	M201:RAW_IMU.xmag	-203
28304	201	M201:RAW_IMU.ymag	-242
28304	201	M201:RAW_IMU.zmag	-477
28400	201	M201:RAW_IMU.xacc	-256
28400	201	M201:RAW_IMU.yacc	-128
28400	201	M201:RAW_IMU.zacc	4112
28400	201	M201:RAW_IMU.xmag	-251
28400	201	M201:RAW_IMU.ymag	-298
28400	201	M201:RAW_IMU.zmag	-449
28500	201	M201:RAW_IMU.xacc	384
28500	201	M201:RAW_IMU.yacc	448
28500	201	M201:RAW_IMU.zacc	4131
28500	201	M201:RAW_IMU.xmag	-278
28500	201	M201:RAW_IMU.ymag	-325
28500	201	M201:RAW_IMU.zmag	-433
28604	201	M201:RAW_IMU.xacc	832
28604	201	M201:RAW_IMU.yacc	896
28604	201	M201:RAW_IMU.zacc	3866
28604	201	M201:RAW_IMU.xmag	-349
28604	201	M201:RAW_IMU.ymag	-396
28604	201	M201:RAW_IMU.zmag	-355
28700	201	M201:RAW_IMU.xacc	1280
28700	201	M201:RAW_IMU.yacc	1792
28700	201	M201:RAW_IMU.zacc	3609
28700	201	M201:RAW_IMU.xmag	-375
28700	201	M201:RAW_IMU.ymag	-425
28700	201	M201:RAW_IMU.zmag	-305
28804	201	M201:RAW_IMU.xacc	1984
28804	201	M201:RAW_IMU.yacc	2304
28804	201	M201:RAW_IMU.zacc	3108
28804	201	M201:RAW_IMU.xmag	-408
28804	201	M201:RAW_IMU.ymag	-460
28804	201	M201:RAW_IMU.zmag	-232
28900	201	M201:RAW_IMU.xacc	2240
28900	201	M201:RAW_IMU.yacc	2432
28900	201	M201:RAW_IMU.zacc	2848
28900	201	M201:RAW_IMU.xmag	-413
28900	201	M201:RAW_IMU.ymag	-467
28900	201	M201:RAW_IMU.zmag	-208
29000	201	M201:RAW_IMU.xacc	2496
29000	201	M201:RAW_IMU.yacc	2688
29000	201	M201:RAW_IMU.zacc	2332
29000	201	M201:RAW_IMU.xmag	-428
29000	201	M201:RAW_IMU.ymag	-483
29000	201	M201:RAW_IMU.zmag	-120
29104	201	M201:RAW_IMU.xacc	2368
29104	201	M201:RAW_IMU.yacc	2688
29104	201	M201:RAW_IMU.zacc	1826
29104	201	M201:RAW_IMU.xmag	-430
29104	201	M201:RAW_IMU.ymag	-485
29104	201	M201:RAW_IMU.zmag	-80
29200	201	M201:RAW_IMU.xacc	2752
29200	201	M201:RAW_IMU.yacc	3072
29200	201	M201:RAW_IMU.zacc	1059
29200	201	M201:RAW_IMU.xmag	-428
29200	201	M201:RAW_IMU.ymag	-480
29200	201	M201:RAW_IMU.zmag	-1
29304	201	M201:RAW_IMU.xacc	2560
29304	201	M201:RAW_IMU.yacc	2944
29304	201	M201:RAW_IMU.zacc	545
29304	201	M201:RAW_IMU.xmag	-422
29304	201	M201:RAW_IMU.ymag	-474
29304	201	M201:RAW_IMU.zmag	40
29400	201	M201:RAW_IMU.xacc	2624
29400	201	M201:RAW_IMU.yacc	2944
29400	201	M201:RAW_IMU.zacc	39
29400	201	M201:RAW_IMU.xmag	-404
29400	201	M201:RAW_IMU.ymag	-455
29400	201	M201:RAW_IMU.zmag	104
29500	201	M201:RAW_IMU.xacc	2624
29500	201	M201:RAW_IMU.yacc	3072
29500	201	M201:RAW_IMU.zacc	-497
29500	201	M201:RAW_IMU.xmag	-395
29500	201	M201:RAW_IMU.ymag	-443
29500	201	M201:RAW_IMU.zmag	128
29604	201	M201:RAW_IMU.xacc	2624
29604	201	M201:RAW_IMU.yacc	3072
29604	201	M201:RAW_IMU.zacc	-992
29604	201	M201:RAW_IMU.xmag	-375
29604	201	M201:RAW_IMU.ymag	-425
29604	201	M201:RAW_IMU.zmag	171
29700	201	M201:RAW_IMU.xacc	2368
29700	201	M201:RAW_IMU.yacc	2688
29700	201	M201:RAW_IMU.zacc	-1250
29700	201	M201:RAW_IMU.xmag	-359
29700	201	M201:RAW_IMU.ymag	-402
29700	201	M201:RAW_IMU.zmag	202
29804	201	M201:RAW_IMU.xacc	2432
29804	201	M201:RAW_IMU.yacc	2752
29804	201	M201:RAW_IMU.zacc	-2023
29804	201	M201:RAW_IMU.xmag	-317
29804	201	M201:RAW_IMU.ymag	-361
29804	201	M201:RAW_IMU.zmag	257
29900	201	M201:RAW_IMU.xacc	2112
29900	201	M201:RAW_IMU.yacc	2432
29900	201	M201:RAW_IMU.zacc	-2292
29900	201	M201:RAW_IMU.xmag	-303
29900	201	M201:RAW_IMU.ymag	-347
29900	201	M201:RAW_IMU.zmag	266
30000	201	M201:RAW_IMU.xacc	1792
30000	201	M201:RAW_IMU.yacc	2304
30000	201	M201:RAW_IMU.zacc	-2790
30000	201	M201:RAW_IMU.xmag	-257
30000	201	M201:RAW_IMU.ymag	-300
30000	201	M201:RAW_IMU.zmag	297
30104	201	M201:RAW_IMU.xacc	1536
30104	201	M201:RAW_IMU.yacc	1920
30104	201	M201:RAW_IMU.zacc	-3055
30104	201	M201:RAW_IMU.xmag	-239
30104	201	M201:RAW_IMU.ymag	-267
30104	201	M201:RAW_IMU.zmag	316
30200	201	M201:RAW_IMU.xacc	1472
30200	201	M201:RAW_IMU.yacc	1856
30200	201	M201:RAW_IMU.zacc	-3313
30200	201	M201:RAW_IMU.xmag	-214
30200	201	M201:RAW_IMU.ymag	-255
30200	201	M201:RAW_IMU.zmag	321
30304	201	M201:RAW_IMU.xacc	1344
30304	201	M201:RAW_IMU.yacc	1792
30304	201	M201:RAW_IMU.zacc	-3561
30304	201	M201:RAW_IMU.xmag	-200
30304	201	M201:RAW_IMU.ymag	-239
30304	201	M201:RAW_IMU.zmag	324
30400	201	M201:RAW_IMU.xacc	1088
30400	201	M201:RAW_IMU.yacc	1408
30400	201	M201:RAW_IMU.zacc	-3564
30400	201	M201:RAW_IMU.xmag	-171
30400	201	M201:RAW_IMU.ymag	-207
30400	201	M201:RAW_IMU.zmag	325
30500	201	M201:RAW_IMU.xacc	960
30500	201	M201:RAW_IMU.yacc	1536
30500	201	M201:RAW_IMU.zacc	-3817
30500	201	M201:RAW_IMU.xmag	-155
30500	201	M201:RAW_IMU.ymag	-194
30500	201	M201:RAW_IMU.zmag	333
30604	201	M201:RAW_IMU.xacc	896
30604	201	M201:RAW_IMU.yacc	1280
30604	201	M201:RAW_IMU.zacc	-3914
30604	201	M201:RAW_IMU.xmag	-146
30604	201	M201:RAW_IMU.ymag	-176
30604	201	M201:RAW_IMU.zmag	328
30700	201	M201:RAW_IMU.xacc	896
30700	201	M201:RAW_IMU.yacc	1152
30700	201	M201:RAW_IMU.zacc	-3725
30700	201	M201:RAW_IMU.xmag	-149
30700	201	M201:RAW_IMU.ymag	-174
30700	201	M201:RAW_IMU.zmag	332
30804	201	M201:RAW_IMU.xacc	704
30804	201	M201:RAW_IMU.yacc	1152
30804	201	M201:RAW_IMU.zacc	-3711
30804	201	M201:RAW_IMU.xmag	-131
30804	201	M201:RAW_IMU.ymag	-163
30804	201	M201:RAW_IMU.zmag	333
30900	201	M201:RAW_IMU.xacc	704
30900	201	M201:RAW_IMU.yacc	1024
30900	201	M201:RAW_IMU.zacc	-3858
30900	201	M201:RAW_IMU.xmag	-119
30900	201	M201:RAW_IMU.ymag	-146
30900	201	M201:RAW_IMU.zmag	329
31000	201	M201:RAW_IMU.xacc	256
31000	201	M201:RAW_IMU.yacc	640
31000	201	M201:RAW_IMU.zacc	-3978
31000	201	M201:RAW_IMU.xmag	-112
31000	201	M201:RAW_IMU.ymag	-135
31000	201	M201:RAW_IMU.zmag	326
31104	201	M201:RAW_IMU.xacc	384
31104	201	M201:RAW_IMU.yacc	704
